NAV 2025/08/01 00:00:00.227 GPS $GPZDA,000000.00,01,08,2025,00,00*6A
NAV 2025/08/01 00:00:00.427 GPS $GPRMC,000000.00,A,4437.511554,N,12402.054810,W,0.00,0.0,010825,,,D*7F
NAV 2025/08/01 00:00:00.427 GPS $GPVTG,0.0,T,,M,0.00,N,0.00,K,D*08
NAV 2025/08/01 00:00:00.522 GPS $GPGGA,000000.00,4437.511554,N,12402.054810,W,2,09,0.9,26.277,M,-23.247,M,2.0,0131*41
NAV 2025/08/01 00:00:01.227 GPS $GPZDA,000001.00,01,08,2025,00,00*6B
NAV 2025/08/01 00:00:01.427 GPS $GPRMC,000001.00,A,4437.511558,N,12402.054802,W,0.00,0.0,010825,,,D*71
NAV 2025/08/01 00:00:01.427 GPS $GPVTG,0.0,T,,M,0.00,N,0.00,K,D*08
NAV 2025/08/01 00:00:01.523 GPS $GPGGA,000001.00,4437.511558,N,12402.054802,W,2,09,0.9,26.263,M,-23.247,M,3.0,0131*4B
NAV 2025/08/01 00:00:02.227 GPS $GPZDA,000002.00,01,08,2025,00,00*68
NAV 2025/08/01 00:00:02.427 GPS $GPRMC,000002.00,A,4437.511562,N,12402.054797,W,0.01,0.0,010825,,,D*79
NAV 2025/08/01 00:00:02.427 GPS $GPVTG,0.0,T,,M,0.01,N,0.01,K,D*08
NAV 2025/08/01 00:00:02.522 GPS $GPGGA,000002.00,4437.511562,N,12402.054797,W,2,09,0.9,26.256,M,-23.247,M,4.0,0131*43
NAV 2025/08/01 00:00:03.227 GPS $GPZDA,000003.00,01,08,2025,00,00*69
NAV 2025/08/01 00:00:03.427 GPS $GPRMC,000003.00,A,4437.511563,N,12402.054795,W,0.01,0.0,010825,,,D*7B
NAV 2025/08/01 00:00:03.427 GPS $GPVTG,0.0,T,,M,0.01,N,0.01,K,D*08
NAV 2025/08/01 00:00:03.522 GPS $GPGGA,000003.00,4437.511563,N,12402.054795,W,2,09,0.9,26.245,M,-23.247,M,5.0,0131*42
NAV 2025/08/01 00:00:04.226 GPS $GPZDA,000004.00,01,08,2025,00,00*6E
NAV 2025/08/01 00:00:04.426 GPS $GPRMC,000004.00,A,4437.511552,N,12402.054784,W,0.01,251.6,010825,,,D*7E
NAV 2025/08/01 00:00:04.426 GPS $GPVTG,251.6,T,,M,0.01,N,0.01,K,D*08
NAV 2025/08/01 00:00:04.530 GPS $GPGGA,000004.00,4437.511552,N,12402.054784,W,2,09,0.9,26.212,M,-23.247,M,2.0,0131*42
NAV 2025/08/01 00:00:05.232 GPS $GPZDA,000005.00,01,08,2025,00,00*6F
NAV 2025/08/01 00:00:05.432 GPS $GPRMC,000005.00,A,4437.511552,N,12402.054779,W,0.00,315.0,010825,,,D*7B
NAV 2025/08/01 00:00:05.432 GPS $GPVTG,315.0,T,,M,0.00,N,0.00,K,D*0F
NAV 2025/08/01 00:00:05.536 GPS $GPGGA,000005.00,4437.511552,N,12402.054779,W,2,09,0.9,26.147,M,-23.247,M,2.0,0131*42
NAV 2025/08/01 00:00:06.227 GPS $GPZDA,000006.00,01,08,2025,00,00*6C
NAV 2025/08/01 00:00:06.427 GPS $GPRMC,000006.00,A,4437.511543,N,12402.054792,W,0.01,236.3,010825,,,D*7F
NAV 2025/08/01 00:00:06.427 GPS $GPVTG,236.3,T,,M,0.01,N,0.01,K,D*0C
NAV 2025/08/01 00:00:06.531 GPS $GPGGA,000006.00,4437.511543,N,12402.054792,W,2,09,0.9,26.120,M,-23.247,M,2.0,0131*45
NAV 2025/08/01 00:00:07.227 GPS $GPZDA,000007.00,01,08,2025,00,00*6D
NAV 2025/08/01 00:00:07.427 GPS $GPRMC,000007.00,A,4437.511540,N,12402.054800,W,0.01,270.0,010825,,,D*78
NAV 2025/08/01 00:00:07.427 GPS $GPVTG,270.0,T,,M,0.01,N,0.01,K,D*0D
NAV 2025/08/01 00:00:07.531 GPS $GPGGA,000007.00,4437.511540,N,12402.054800,W,2,09,0.9,26.106,M,-23.247,M,3.0,0131*46
NAV 2025/08/01 00:00:08.227 GPS $GPZDA,000008.00,01,08,2025,00,00*62
NAV 2025/08/01 00:00:08.427 GPS $GPRMC,000008.00,A,4437.511536,N,12402.054806,W,0.01,225.0,010825,,,D*70
NAV 2025/08/01 00:00:08.427 GPS $GPVTG,225.0,T,,M,0.01,N,0.02,K,D*0E
NAV 2025/08/01 00:00:08.531 GPS $GPGGA,000008.00,4437.511536,N,12402.054806,W,2,09,0.9,26.100,M,-23.247,M,4.0,0131*4F
NAV 2025/08/01 00:00:09.227 GPS $GPZDA,000009.00,01,08,2025,00,00*63
NAV 2025/08/01 00:00:09.427 GPS $GPRMC,000009.00,A,4437.511535,N,12402.054809,W,0.01,0.0,010825,,,D*78
NAV 2025/08/01 00:00:09.427 GPS $GPVTG,0.0,T,,M,0.01,N,0.01,K,D*08
NAV 2025/08/01 00:00:09.523 GPS $GPGGA,000009.00,4437.511535,N,12402.054809,W,2,09,0.9,26.092,M,-23.247,M,5.0,0131*49
NAV 2025/08/01 00:00:10.227 GPS $GPZDA,000010.00,01,08,2025,00,00*6B
NAV 2025/08/01 00:00:10.427 GPS $GPRMC,000010.00,A,4437.511547,N,12402.054825,W,0.00,333.4,010825,,,D*7D
NAV 2025/08/01 00:00:10.427 GPS $GPVTG,333.4,T,,M,0.00,N,0.01,K,D*0E
NAV 2025/08/01 00:00:10.531 GPS $GPGGA,000010.00,4437.511547,N,12402.054825,W,2,09,0.9,26.121,M,-23.247,M,2.0,0131*44
NAV 2025/08/01 00:00:11.227 GPS $GPZDA,000011.00,01,08,2025,00,00*6A
NAV 2025/08/01 00:00:11.427 GPS $GPRMC,000011.00,A,4437.511550,N,12402.054835,W,0.00,90.0,010825,,,D*45
NAV 2025/08/01 00:00:11.427 GPS $GPVTG,90.0,T,,M,0.00,N,0.00,K,D*31
NAV 2025/08/01 00:00:11.526 GPS $GPGGA,000011.00,4437.511550,N,12402.054835,W,2,09,0.9,26.177,M,-23.247,M,2.0,0131*41
NAV 2025/08/01 00:00:12.227 GPS $GPZDA,000012.00,01,08,2025,00,00*69
NAV 2025/08/01 00:00:12.427 GPS $GPRMC,000012.00,A,4437.511553,N,12402.054828,W,0.00,270.0,010825,,,D*75
NAV 2025/08/01 00:00:12.427 GPS $GPVTG,270.0,T,,M,0.00,N,0.00,K,D*0D
NAV 2025/08/01 00:00:12.530 GPS $GPGGA,000012.00,4437.511553,N,12402.054828,W,2,09,0.9,26.193,M,-23.247,M,2.0,0131*47
NAV 2025/08/01 00:00:13.227 GPS $GPZDA,000013.00,01,08,2025,00,00*68
NAV 2025/08/01 00:00:13.427 GPS $GPRMC,000013.00,A,4437.511556,N,12402.054823,W,0.00,180.0,010825,,,D*76
NAV 2025/08/01 00:00:13.427 GPS $GPVTG,180.0,T,,M,0.00,N,0.01,K,D*00
NAV 2025/08/01 00:00:13.531 GPS $GPGGA,000013.00,4437.511556,N,12402.054823,W,2,09,0.9,26.202,M,-23.247,M,3.0,0131*42
NAV 2025/08/01 00:00:14.227 GPS $GPZDA,000014.00,01,08,2025,00,00*6F
NAV 2025/08/01 00:00:14.427 GPS $GPRMC,000014.00,A,4437.511560,N,12402.054821,W,0.00,26.6,010825,,,D*4D
NAV 2025/08/01 00:00:14.427 GPS $GPVTG,26.6,T,,M,0.00,N,0.01,K,D*3B
NAV 2025/08/01 00:00:14.526 GPS $GPGGA,000014.00,4437.511560,N,12402.054821,W,2,09,0.9,26.208,M,-23.247,M,4.0,0131*4F
NAV 2025/08/01 00:00:15.230 GPS $GPZDA,000015.00,01,08,2025,00,00*6E
NAV 2025/08/01 00:00:15.430 GPS $GPRMC,000015.00,A,4437.511566,N,12402.054818,W,0.00,225.0,010825,,,D*77
NAV 2025/08/01 00:00:15.430 GPS $GPVTG,225.0,T,,M,0.00,N,0.00,K,D*0D
NAV 2025/08/01 00:00:15.534 GPS $GPGGA,000015.00,4437.511566,N,12402.054818,W,2,09,0.9,26.209,M,-23.247,M,5.0,0131*42
NAV 2025/08/01 00:00:16.232 GPS $GPZDA,000016.00,01,08,2025,00,00*6D
NAV 2025/08/01 00:00:16.432 GPS $GPRMC,000016.00,A,4437.511559,N,12402.054804,W,0.01,0.0,010825,,,D*71
NAV 2025/08/01 00:00:16.432 GPS $GPVTG,0.0,T,,M,0.01,N,0.02,K,D*0B
NAV 2025/08/01 00:00:16.528 GPS $GPGGA,000016.00,4437.511559,N,12402.054804,W,2,09,0.9,26.179,M,-23.247,M,2.0,0131*43
NAV 2025/08/01 00:00:17.228 GPS $GPZDA,000017.00,01,08,2025,00,00*6C
NAV 2025/08/01 00:00:17.428 GPS $GPRMC,000017.00,A,4437.511560,N,12402.054797,W,0.00,270.0,010825,,,D*7B
NAV 2025/08/01 00:00:17.428 GPS $GPVTG,270.0,T,,M,0.00,N,0.00,K,D*0D
NAV 2025/08/01 00:00:17.531 GPS $GPGGA,000017.00,4437.511560,N,12402.054797,W,2,09,0.9,26.123,M,-23.247,M,2.0,0131*42
NAV 2025/08/01 00:00:18.227 GPS $GPZDA,000018.00,01,08,2025,00,00*63
NAV 2025/08/01 00:00:18.427 GPS $GPRMC,000018.00,A,4437.511559,N,12402.054808,W,0.01,326.3,010825,,,D*77
NAV 2025/08/01 00:00:18.428 GPS $GPVTG,326.3,T,,M,0.01,N,0.01,K,D*0C
NAV 2025/08/01 00:00:18.531 GPS $GPGGA,000018.00,4437.511559,N,12402.054808,W,2,09,0.9,26.153,M,-23.247,M,2.0,0131*49
NAV 2025/08/01 00:00:19.227 GPS $GPZDA,000019.00,01,08,2025,00,00*62
NAV 2025/08/01 00:00:19.427 GPS $GPRMC,000019.00,A,4437.511555,N,12402.054815,W,0.00,90.0,010825,,,D*4A
NAV 2025/08/01 00:00:19.428 GPS $GPVTG,90.0,T,,M,0.00,N,0.00,K,D*31
NAV 2025/08/01 00:00:19.527 GPS $GPGGA,000019.00,4437.511555,N,12402.054815,W,2,09,0.9,26.170,M,-23.247,M,3.0,0131*48
NAV 2025/08/01 00:00:20.228 GPS $GPZDA,000020.00,01,08,2025,00,00*68
NAV 2025/08/01 00:00:20.428 GPS $GPRMC,000020.00,A,4437.511557,N,12402.054819,W,0.01,225.0,010825,,,D*73
NAV 2025/08/01 00:00:20.428 GPS $GPVTG,225.0,T,,M,0.01,N,0.01,K,D*0D
NAV 2025/08/01 00:00:20.531 GPS $GPGGA,000020.00,4437.511557,N,12402.054819,W,2,09,0.9,26.179,M,-23.247,M,4.0,0131*42
NAV 2025/08/01 00:00:21.227 GPS $GPZDA,000021.00,01,08,2025,00,00*69
NAV 2025/08/01 00:00:21.427 GPS $GPRMC,000021.00,A,4437.511559,N,12402.054822,W,0.01,0.0,010825,,,D*71
NAV 2025/08/01 00:00:21.427 GPS $GPVTG,0.0,T,,M,0.01,N,0.01,K,D*08
NAV 2025/08/01 00:00:21.523 GPS $GPGGA,000021.00,4437.511559,N,12402.054822,W,2,09,0.9,26.180,M,-23.247,M,5.0,0131*42
NAV 2025/08/01 00:00:22.227 GPS $GPZDA,000022.00,01,08,2025,00,00*6A
NAV 2025/08/01 00:00:22.427 GPS $GPRMC,000022.00,A,4437.511570,N,12402.054838,W,0.01,206.6,010825,,,D*70
NAV 2025/08/01 00:00:22.428 GPS $GPVTG,206.6,T,,M,0.01,N,0.02,K,D*09
NAV 2025/08/01 00:00:22.531 GPS $GPGGA,000022.00,4437.511570,N,12402.054838,W,2,09,0.9,26.221,M,-23.247,M,2.0,0131*4E
NAV 2025/08/01 00:00:23.227 GPS $GPZDA,000023.00,01,08,2025,00,00*6B
NAV 2025/08/01 00:00:23.427 GPS $GPRMC,000023.00,A,4437.511570,N,12402.054845,W,0.01,194.0,010825,,,D*75
NAV 2025/08/01 00:00:23.427 GPS $GPVTG,194.0,T,,M,0.01,N,0.01,K,D*04
NAV 2025/08/01 00:00:23.531 GPS $GPGGA,000023.00,4437.511570,N,12402.054845,W,2,09,0.9,26.287,M,-23.247,M,2.0,0131*49
NAV 2025/08/01 00:00:24.227 GPS $GPZDA,000024.00,01,08,2025,00,00*6C
NAV 2025/08/01 00:00:24.427 GPS $GPRMC,000024.00,A,4437.511572,N,12402.054837,W,0.01,201.8,010825,,,D*72
NAV 2025/08/01 00:00:24.427 GPS $GPVTG,201.8,T,,M,0.01,N,0.02,K,D*00
NAV 2025/08/01 00:00:24.531 GPS $GPGGA,000024.00,4437.511572,N,12402.054837,W,2,09,0.9,26.260,M,-23.247,M,2.0,0131*40
NAV 2025/08/01 00:00:25.227 GPS $GPZDA,000025.00,01,08,2025,00,00*6D
NAV 2025/08/01 00:00:25.427 GPS $GPRMC,000025.00,A,4437.511572,N,12402.054832,W,0.01,213.7,010825,,,D*7A
NAV 2025/08/01 00:00:25.427 GPS $GPVTG,213.7,T,,M,0.01,N,0.01,K,D*0F
NAV 2025/08/01 00:00:25.531 GPS $GPGGA,000025.00,4437.511572,N,12402.054832,W,2,09,0.9,26.243,M,-23.247,M,3.0,0131*44
NAV 2025/08/01 00:00:26.227 GPS $GPZDA,000026.00,01,08,2025,00,00*6E
NAV 2025/08/01 00:00:26.427 GPS $GPRMC,000026.00,A,4437.511568,N,12402.054830,W,0.00,206.6,010825,,,D*74
NAV 2025/08/01 00:00:26.427 GPS $GPVTG,206.6,T,,M,0.00,N,0.01,K,D*0B
NAV 2025/08/01 00:00:26.530 GPS $GPGGA,000026.00,4437.511568,N,12402.054830,W,2,09,0.9,26.231,M,-23.247,M,4.0,0131*4C
NAV 2025/08/01 00:00:27.227 GPS $GPZDA,000027.00,01,08,2025,00,00*6F
NAV 2025/08/01 00:00:27.427 GPS $GPRMC,000027.00,A,4437.511567,N,12402.054828,W,0.00,0.0,010825,,,D*71
NAV 2025/08/01 00:00:27.427 GPS $GPVTG,0.0,T,,M,0.00,N,0.00,K,D*08
NAV 2025/08/01 00:00:27.522 GPS $GPGGA,000027.00,4437.511567,N,12402.054828,W,2,09,0.9,26.225,M,-23.247,M,5.0,0131*4F
NAV 2025/08/01 00:00:28.227 GPS $GPZDA,000028.00,01,08,2025,00,00*60
NAV 2025/08/01 00:00:28.427 GPS $GPRMC,000028.00,A,4437.511555,N,12402.054817,W,0.00,270.0,010825,,,D*76
NAV 2025/08/01 00:00:28.427 GPS $GPVTG,270.0,T,,M,0.00,N,0.00,K,D*0D
NAV 2025/08/01 00:00:28.531 GPS $GPGGA,000028.00,4437.511555,N,12402.054817,W,2,09,0.9,26.196,M,-23.247,M,2.0,0131*41
NAV 2025/08/01 00:00:29.227 GPS $GPZDA,000029.00,01,08,2025,00,00*61
NAV 2025/08/01 00:00:29.427 GPS $GPRMC,000029.00,A,4437.511552,N,12402.054813,W,0.01,333.4,010825,,,D*77
NAV 2025/08/01 00:00:29.427 GPS $GPVTG,333.4,T,,M,0.01,N,0.02,K,D*0C
NAV 2025/08/01 00:00:29.530 GPS $GPGGA,000029.00,4437.511552,N,12402.054813,W,2,09,0.9,26.129,M,-23.247,M,2.0,0131*47
NAV 2025/08/01 00:00:30.227 GPS $GPZDA,000030.00,01,08,2025,00,00*69
NAV 2025/08/01 00:00:30.427 GPS $GPRMC,000030.00,A,4437.511544,N,12402.054827,W,0.01,236.3,010825,,,D*7C
NAV 2025/08/01 00:00:30.427 GPS $GPVTG,236.3,T,,M,0.01,N,0.01,K,D*0C
NAV 2025/08/01 00:00:30.530 GPS $GPGGA,000030.00,4437.511544,N,12402.054827,W,2,09,0.9,26.153,M,-23.247,M,2.0,0131*42
NAV 2025/08/01 00:00:31.229 GPS $GPZDA,000031.00,01,08,2025,00,00*68
NAV 2025/08/01 00:00:31.429 GPS $GPRMC,000031.00,A,4437.511542,N,12402.054835,W,0.01,348.7,010825,,,D*74
NAV 2025/08/01 00:00:31.429 GPS $GPVTG,348.7,T,,M,0.01,N,0.02,K,D*03
NAV 2025/08/01 00:00:31.532 GPS $GPGGA,000031.00,4437.511542,N,12402.054835,W,2,09,0.9,26.167,M,-23.247,M,3.0,0131*40
NAV 2025/08/01 00:00:32.227 GPS $GPZDA,000032.00,01,08,2025,00,00*6B
NAV 2025/08/01 00:00:32.427 GPS $GPRMC,000032.00,A,4437.511539,N,12402.054841,W,0.00,0.0,010825,,,D*71
NAV 2025/08/01 00:00:32.427 GPS $GPVTG,0.0,T,,M,0.00,N,0.01,K,D*09
NAV 2025/08/01 00:00:32.522 GPS $GPGGA,000032.00,4437.511539,N,12402.054841,W,2,09,0.9,26.170,M,-23.247,M,4.0,0131*4D
NAV 2025/08/01 00:00:33.226 GPS $GPZDA,000033.00,01,08,2025,00,00*6A
NAV 2025/08/01 00:00:33.426 GPS $GPRMC,000033.00,A,4437.511540,N,12402.054844,W,0.01,341.6,010825,,,D*7A
NAV 2025/08/01 00:00:33.426 GPS $GPVTG,341.6,T,,M,0.01,N,0.01,K,D*08
NAV 2025/08/01 00:00:33.530 GPS $GPGGA,000033.00,4437.511540,N,12402.054844,W,2,09,0.9,26.168,M,-23.247,M,5.0,0131*4F
NAV 2025/08/01 00:00:34.226 GPS $GPZDA,000034.00,01,08,2025,00,00*6D
NAV 2025/08/01 00:00:34.426 GPS $GPRMC,000034.00,A,4437.511558,N,12402.054859,W,0.01,341.6,010825,,,D*78
NAV 2025/08/01 00:00:34.426 GPS $GPVTG,341.6,T,,M,0.01,N,0.01,K,D*08
NAV 2025/08/01 00:00:34.530 GPS $GPGGA,000034.00,4437.511558,N,12402.054859,W,2,09,0.9,26.200,M,-23.247,M,2.0,0131*47
NAV 2025/08/01 00:00:35.230 GPS $GPZDA,000035.00,01,08,2025,00,00*6C
NAV 2025/08/01 00:00:35.430 GPS $GPRMC,000035.00,A,4437.511559,N,12402.054872,W,0.01,231.3,010825,,,D*72
NAV 2025/08/01 00:00:35.430 GPS $GPVTG,231.3,T,,M,0.01,N,0.02,K,D*08
NAV 2025/08/01 00:00:35.534 GPS $GPGGA,000035.00,4437.511559,N,12402.054872,W,2,09,0.9,26.253,M,-23.247,M,2.0,0131*48
NAV 2025/08/01 00:00:36.226 GPS $GPZDA,000036.00,01,08,2025,00,00*6F
NAV 2025/08/01 00:00:36.426 GPS $GPRMC,000036.00,A,4437.511563,N,12402.054858,W,0.01,0.0,010825,,,D*73
NAV 2025/08/01 00:00:36.426 GPS $GPVTG,0.0,T,,M,0.01,N,0.02,K,D*0B
NAV 2025/08/01 00:00:36.521 GPS $GPGGA,000036.00,4437.511563,N,12402.054858,W,2,09,0.9,26.234,M,-23.247,M,2.0,0131*4B
NAV 2025/08/01 00:00:37.226 GPS $GPZDA,000037.00,01,08,2025,00,00*6E
NAV 2025/08/01 00:00:37.426 GPS $GPRMC,000037.00,A,4437.511562,N,12402.054851,W,0.01,211.0,010825,,,D*78
NAV 2025/08/01 00:00:37.426 GPS $GPVTG,211.0,T,,M,0.01,N,0.02,K,D*09
NAV 2025/08/01 00:00:37.530 GPS $GPGGA,000037.00,4437.511562,N,12402.054851,W,2,09,0.9,26.224,M,-23.247,M,3.0,0131*42
NAV 2025/08/01 00:00:38.226 GPS $GPZDA,000038.00,01,08,2025,00,00*61
NAV 2025/08/01 00:00:38.426 GPS $GPRMC,000038.00,A,4437.511560,N,12402.054847,W,0.00,270.0,010825,,,D*74
NAV 2025/08/01 00:00:38.426 GPS $GPVTG,270.0,T,,M,0.00,N,0.00,K,D*0D
NAV 2025/08/01 00:00:38.530 GPS $GPGGA,000038.00,4437.511560,N,12402.054847,W,2,09,0.9,26.220,M,-23.247,M,4.0,0131*4B
NAV 2025/08/01 00:00:39.227 GPS $GPZDA,000039.00,01,08,2025,00,00*60
NAV 2025/08/01 00:00:39.427 GPS $GPRMC,000039.00,A,4437.511552,N,12402.054846,W,0.01,198.4,010825,,,D*75
NAV 2025/08/01 00:00:39.427 GPS $GPVTG,198.4,T,,M,0.01,N,0.02,K,D*0F
NAV 2025/08/01 00:00:39.531 GPS $GPGGA,000039.00,4437.511552,N,12402.054846,W,2,09,0.9,26.209,M,-23.247,M,5.0,0131*40
NAV 2025/08/01 00:00:40.227 GPS $GPZDA,000040.00,01,08,2025,00,00*6E
NAV 2025/08/01 00:00:40.427 GPS $GPRMC,000040.00,A,4437.511538,N,12402.054838,W,0.00,206.6,010825,,,D*79
NAV 2025/08/01 00:00:40.427 GPS $GPVTG,206.6,T,,M,0.00,N,0.01,K,D*0B
NAV 2025/08/01 00:00:40.531 GPS $GPGGA,000040.00,4437.511538,N,12402.054838,W,2,09,0.9,26.184,M,-23.247,M,2.0,0131*4A
NAV 2025/08/01 00:00:41.227 GPS $GPZDA,000041.00,01,08,2025,00,00*6F
NAV 2025/08/01 00:00:41.427 GPS $GPRMC,000041.00,A,4437.511531,N,12402.054830,W,0.00,90.0,010825,,,D*42
NAV 2025/08/01 00:00:41.427 GPS $GPVTG,90.0,T,,M,0.00,N,0.00,K,D*31
NAV 2025/08/01 00:00:41.526 GPS $GPGGA,000041.00,4437.511531,N,12402.054830,W,2,09,0.9,26.168,M,-23.247,M,2.0,0131*48
NAV 2025/08/01 00:00:42.227 GPS $GPZDA,000042.00,01,08,2025,00,00*6C
NAV 2025/08/01 00:00:42.427 GPS $GPRMC,000042.00,A,4437.511520,N,12402.054845,W,0.01,166.0,010825,,,D*7A
NAV 2025/08/01 00:00:42.427 GPS $GPVTG,166.0,T,,M,0.01,N,0.01,K,D*09
NAV 2025/08/01 00:00:42.530 GPS $GPGGA,000042.00,4437.511520,N,12402.054845,W,2,09,0.9,26.205,M,-23.247,M,2.0,0131*41
NAV 2025/08/01 00:00:43.232 GPS $GPZDA,000043.00,01,08,2025,00,00*6D
NAV 2025/08/01 00:00:43.432 GPS $GPRMC,000043.00,A,4437.511517,N,12402.054854,W,0.01,90.0,010825,,,D*47
NAV 2025/08/01 00:00:43.432 GPS $GPVTG,90.0,T,,M,0.01,N,0.01,K,D*31
NAV 2025/08/01 00:00:43.532 GPS $GPGGA,000043.00,4437.511517,N,12402.054854,W,2,09,0.9,26.228,M,-23.247,M,3.0,0131*4A
NAV 2025/08/01 00:00:44.227 GPS $GPZDA,000044.00,01,08,2025,00,00*6A
NAV 2025/08/01 00:00:44.427 GPS $GPRMC,000044.00,A,4437.511514,N,12402.054859,W,0.01,90.0,010825,,,D*4E
NAV 2025/08/01 00:00:44.427 GPS $GPVTG,90.0,T,,M,0.01,N,0.01,K,D*31
NAV 2025/08/01 00:00:44.526 GPS $GPGGA,000044.00,4437.511514,N,12402.054859,W,2,09,0.9,26.243,M,-23.247,M,4.0,0131*49
NAV 2025/08/01 00:00:45.226 GPS $GPZDA,000045.00,01,08,2025,00,00*6B
NAV 2025/08/01 00:00:45.426 GPS $GPRMC,000045.00,A,4437.511513,N,12402.054861,W,0.01,45.0,010825,,,D*4B
NAV 2025/08/01 00:00:45.426 GPS $GPVTG,45.0,T,,M,0.01,N,0.02,K,D*3A
NAV 2025/08/01 00:00:45.526 GPS $GPGGA,000045.00,4437.511513,N,12402.054861,W,2,09,0.9,26.246,M,-23.247,M,5.0,0131*40
NAV 2025/08/01 00:00:46.226 GPS $GPZDA,000046.00,01,08,2025,00,00*68
NAV 2025/08/01 00:00:46.426 GPS $GPRMC,000046.00,A,4437.511523,N,12402.054873,W,0.00,90.0,010825,,,D*41
NAV 2025/08/01 00:00:46.426 GPS $GPVTG,90.0,T,,M,0.00,N,0.01,K,D*30
NAV 2025/08/01 00:00:46.526 GPS $GPGGA,000046.00,4437.511523,N,12402.054873,W,2,09,0.9,26.266,M,-23.247,M,2.0,0131*46
NAV 2025/08/01 00:00:47.226 GPS $GPZDA,000047.00,01,08,2025,00,00*69
NAV 2025/08/01 00:00:47.426 GPS $GPRMC,000047.00,A,4437.511527,N,12402.054881,W,0.01,14.0,010825,,,D*44
NAV 2025/08/01 00:00:47.426 GPS $GPVTG,14.0,T,,M,0.01,N,0.01,K,D*3D
NAV 2025/08/01 00:00:47.526 GPS $GPGGA,000047.00,4437.511527,N,12402.054881,W,2,09,0.9,26.272,M,-23.247,M,2.0,0131*4B
NAV 2025/08/01 00:00:48.226 GPS $GPZDA,000048.00,01,08,2025,00,00*66
NAV 2025/08/01 00:00:48.426 GPS $GPRMC,000048.00,A,4437.511538,N,12402.054861,W,0.01,45.0,010825,,,D*4F
NAV 2025/08/01 00:00:48.426 GPS $GPVTG,45.0,T,,M,0.01,N,0.01,K,D*39
NAV 2025/08/01 00:00:48.526 GPS $GPGGA,000048.00,4437.511538,N,12402.054861,W,2,09,0.9,26.234,M,-23.247,M,2.0,0131*46
NAV 2025/08/01 00:00:49.230 GPS $GPZDA,000049.00,01,08,2025,00,00*67
NAV 2025/08/01 00:00:49.430 GPS $GPRMC,000049.00,A,4437.511547,N,12402.054845,W,0.01,45.0,010825,,,D*40
NAV 2025/08/01 00:00:49.430 GPS $GPVTG,45.0,T,,M,0.01,N,0.02,K,D*3A
NAV 2025/08/01 00:00:49.529 GPS $GPGGA,000049.00,4437.511547,N,12402.054845,W,2,09,0.9,26.207,M,-23.247,M,3.0,0131*48
NAV 2025/08/01 00:00:50.227 GPS $GPZDA,000050.00,01,08,2025,00,00*6F
NAV 2025/08/01 00:00:50.427 GPS $GPRMC,000050.00,A,4437.511555,N,12402.054832,W,0.01,45.0,010825,,,D*4B
NAV 2025/08/01 00:00:50.427 GPS $GPVTG,45.0,T,,M,0.01,N,0.02,K,D*3A
NAV 2025/08/01 00:00:50.527 GPS $GPGGA,000050.00,4437.511555,N,12402.054832,W,2,09,0.9,26.192,M,-23.247,M,4.0,0131*4B
NAV 2025/08/01 00:00:51.227 GPS $GPZDA,000051.00,01,08,2025,00,00*6E
NAV 2025/08/01 00:00:51.427 GPS $GPRMC,000051.00,A,4437.511562,N,12402.054823,W,0.01,68.2,010825,,,D*43
NAV 2025/08/01 00:00:51.427 GPS $GPVTG,68.2,T,,M,0.01,N,0.02,K,D*37
NAV 2025/08/01 00:00:51.527 GPS $GPGGA,000051.00,4437.511562,N,12402.054823,W,2,09,0.9,26.183,M,-23.247,M,5.0,0131*4F
NAV 2025/08/01 00:00:52.227 GPS $GPZDA,000052.00,01,08,2025,00,00*6D
NAV 2025/08/01 00:00:52.427 GPS $GPRMC,000052.00,A,4437.511562,N,12402.054810,W,0.01,153.4,010825,,,D*7F
NAV 2025/08/01 00:00:52.427 GPS $GPVTG,153.4,T,,M,0.01,N,0.02,K,D*08
NAV 2025/08/01 00:00:52.530 GPS $GPGGA,000052.00,4437.511562,N,12402.054810,W,2,09,0.9,26.180,M,-23.247,M,2.0,0131*48
NAV 2025/08/01 00:00:53.227 GPS $GPZDA,000053.00,01,08,2025,00,00*6C
NAV 2025/08/01 00:00:53.427 GPS $GPRMC,000053.00,A,4437.511563,N,12402.054802,W,0.00,135.0,010825,,,D*79
NAV 2025/08/01 00:00:53.427 GPS $GPVTG,135.0,T,,M,0.00,N,0.00,K,D*0F
NAV 2025/08/01 00:00:53.530 GPS $GPGGA,000053.00,4437.511563,N,12402.054802,W,2,09,0.9,26.180,M,-23.247,M,2.0,0131*4B
NAV 2025/08/01 00:00:54.226 GPS $GPZDA,000054.00,01,08,2025,00,00*6B
NAV 2025/08/01 00:00:54.426 GPS $GPRMC,000054.00,A,4437.511555,N,12402.054819,W,0.00,90.0,010825,,,D*4F
NAV 2025/08/01 00:00:54.426 GPS $GPVTG,90.0,T,,M,0.00,N,0.01,K,D*30
NAV 2025/08/01 00:00:54.525 GPS $GPGGA,000054.00,4437.511555,N,12402.054819,W,2,09,0.9,26.224,M,-23.247,M,2.0,0131*4E
NAV 2025/08/01 00:00:55.226 GPS $GPZDA,000055.00,01,08,2025,00,00*6A
NAV 2025/08/01 00:00:55.426 GPS $GPRMC,000055.00,A,4437.511548,N,12402.054830,W,0.00,116.6,010825,,,D*70
NAV 2025/08/01 00:00:55.426 GPS $GPVTG,116.6,T,,M,0.00,N,0.01,K,D*09
NAV 2025/08/01 00:00:55.530 GPS $GPGGA,000055.00,4437.511548,N,12402.054830,W,2,09,0.9,26.248,M,-23.247,M,3.0,0131*43
NAV 2025/08/01 00:00:56.230 GPS $GPZDA,000056.00,01,08,2025,00,00*69
NAV 2025/08/01 00:00:56.430 GPS $GPRMC,000056.00,A,4437.511544,N,12402.054836,W,0.02,172.9,010825,,,D*76
NAV 2025/08/01 00:00:56.430 GPS $GPVTG,172.9,T,,M,0.02,N,0.03,K,D*04
NAV 2025/08/01 00:00:56.533 GPS $GPGGA,000056.00,4437.511544,N,12402.054836,W,2,09,0.9,26.263,M,-23.247,M,4.0,0131*44
NAV 2025/08/01 00:00:57.226 GPS $GPZDA,000057.00,01,08,2025,00,00*68
NAV 2025/08/01 00:00:57.426 GPS $GPRMC,000057.00,A,4437.511543,N,12402.054838,W,0.00,116.6,010825,,,D*71
NAV 2025/08/01 00:00:57.426 GPS $GPVTG,116.6,T,,M,0.00,N,0.01,K,D*09
NAV 2025/08/01 00:00:57.529 GPS $GPGGA,000057.00,4437.511543,N,12402.054838,W,2,09,0.9,26.272,M,-23.247,M,5.0,0131*4D
NAV 2025/08/01 00:00:58.226 GPS $GPZDA,000058.00,01,08,2025,00,00*67
NAV 2025/08/01 00:00:58.426 GPS $GPRMC,000058.00,A,4437.511544,N,12402.054849,W,0.01,180.0,010825,,,D*77
NAV 2025/08/01 00:00:58.426 GPS $GPVTG,180.0,T,,M,0.01,N,0.02,K,D*02
NAV 2025/08/01 00:00:58.530 GPS $GPGGA,000058.00,4437.511544,N,12402.054849,W,2,09,0.9,26.280,M,-23.247,M,2.0,0131*49
NAV 2025/08/01 00:00:59.226 GPS $GPZDA,000059.00,01,08,2025,00,00*66
NAV 2025/08/01 00:00:59.426 GPS $GPRMC,000059.00,A,4437.511546,N,12402.054853,W,0.00,63.4,010825,,,D*46
NAV 2025/08/01 00:00:59.426 GPS $GPVTG,63.4,T,,M,0.00,N,0.01,K,D*38
NAV 2025/08/01 00:00:59.525 GPS $GPGGA,000059.00,4437.511546,N,12402.054853,W,2,09,0.9,26.276,M,-23.247,M,2.0,0131*48
NAV 2025/08/01 00:01:00.231 GPS $GPZDA,000100.00,01,08,2025,00,00*6B
NAV 2025/08/01 00:01:00.431 GPS $GPRMC,000100.00,A,4437.511550,N,12402.054835,W,0.01,180.0,010825,,,D*75
NAV 2025/08/01 00:01:00.431 GPS $GPVTG,180.0,T,,M,0.01,N,0.02,K,D*02
NAV 2025/08/01 00:01:00.535 GPS $GPGGA,000100.00,4437.511550,N,12402.054835,W,2,09,0.9,26.228,M,-23.247,M,2.0,0131*49
NAV 2025/08/01 00:01:01.226 GPS $GPZDA,000101.00,01,08,2025,00,00*6A
NAV 2025/08/01 00:01:01.426 GPS $GPRMC,000101.00,A,4437.511553,N,12402.054825,W,0.01,0.0,010825,,,D*7F
NAV 2025/08/01 00:01:01.427 GPS $GPVTG,0.0,T,,M,0.01,N,0.02,K,D*0B
NAV 2025/08/01 00:01:01.522 GPS $GPGGA,000101.00,4437.511553,N,12402.054825,W,2,09,0.9,26.196,M,-23.247,M,3.0,0131*4D
NAV 2025/08/01 00:01:02.226 GPS $GPZDA,000102.00,01,08,2025,00,00*69
NAV 2025/08/01 00:01:02.426 GPS $GPRMC,000102.00,A,4437.511553,N,12402.054819,W,0.00,206.6,010825,,,D*70
NAV 2025/08/01 00:01:02.426 GPS $GPVTG,206.6,T,,M,0.00,N,0.01,K,D*0B
NAV 2025/08/01 00:01:02.530 GPS $GPGGA,000102.00,4437.511553,N,12402.054819,W,2,09,0.9,26.175,M,-23.247,M,4.0,0131*4B
NAV 2025/08/01 00:01:03.226 GPS $GPZDA,000103.00,01,08,2025,00,00*68
NAV 2025/08/01 00:01:03.426 GPS $GPRMC,000103.00,A,4437.511556,N,12402.054815,W,0.01,0.0,010825,,,D*7B
NAV 2025/08/01 00:01:03.426 GPS $GPVTG,0.0,T,,M,0.01,N,0.01,K,D*08
NAV 2025/08/01 00:01:03.521 GPS $GPGGA,000103.00,4437.511556,N,12402.054815,W,2,09,0.9,26.169,M,-23.247,M,5.0,0131*4F
NAV 2025/08/01 00:01:04.226 GPS $GPZDA,000104.00,01,08,2025,00,00*6F
NAV 2025/08/01 00:01:04.426 GPS $GPRMC,000104.00,A,4437.511560,N,12402.054807,W,0.02,352.9,010825,,,D*74
NAV 2025/08/01 00:01:04.426 GPS $GPVTG,352.9,T,,M,0.02,N,0.03,K,D*04
NAV 2025/08/01 00:01:04.530 GPS $GPGGA,000104.00,4437.511560,N,12402.054807,W,2,09,0.9,26.163,M,-23.247,M,2.0,0131*43
NAV 2025/08/01 00:01:05.226 GPS $GPZDA,000105.00,01,08,2025,00,00*6E
NAV 2025/08/01 00:01:05.426 GPS $GPRMC,000105.00,A,4437.511544,N,12402.054820,W,0.01,291.8,010825,,,D*7A
NAV 2025/08/01 00:01:05.426 GPS $GPVTG,291.8,T,,M,0.01,N,0.02,K,D*09
NAV 2025/08/01 00:01:05.530 GPS $GPGGA,000105.00,4437.511544,N,12402.054820,W,2,09,0.9,26.150,M,-23.247,M,2.0,0131*41
NAV 2025/08/01 00:01:06.227 GPS $GPZDA,000106.00,01,08,2025,00,00*6D
NAV 2025/08/01 00:01:06.427 GPS $GPRMC,000106.00,A,4437.511530,N,12402.054829,W,0.02,354.8,010825,,,D*78
NAV 2025/08/01 00:01:06.427 GPS $GPVTG,354.8,T,,M,0.02,N,0.04,K,D*04
NAV 2025/08/01 00:01:06.531 GPS $GPGGA,000106.00,4437.511530,N,12402.054829,W,2,09,0.9,26.257,M,-23.247,M,2.0,0131*4C
NAV 2025/08/01 00:01:07.227 GPS $GPZDA,000107.00,01,08,2025,00,00*6C
NAV 2025/08/01 00:01:07.427 GPS $GPRMC,000107.00,A,4437.511520,N,12402.054835,W,0.01,329.0,010825,,,D*74
NAV 2025/08/01 00:01:07.427 GPS $GPVTG,329.0,T,,M,0.01,N,0.02,K,D*03
NAV 2025/08/01 00:01:07.530 GPS $GPGGA,000107.00,4437.511520,N,12402.054835,W,2,09,0.9,26.324,M,-23.247,M,3.0,0131*45
NAV 2025/08/01 00:01:08.227 GPS $GPZDA,000108.00,01,08,2025,00,00*63
NAV 2025/08/01 00:01:08.427 GPS $GPRMC,000108.00,A,4437.511513,N,12402.054839,W,0.00,315.0,010825,,,D*79
NAV 2025/08/01 00:01:08.427 GPS $GPVTG,315.0,T,,M,0.00,N,0.00,K,D*0F
NAV 2025/08/01 00:01:08.531 GPS $GPGGA,000108.00,4437.511513,N,12402.054839,W,2,09,0.9,26.359,M,-23.247,M,4.0,0131*4B
NAV 2025/08/01 00:01:09.229 GPS $GPZDA,000109.00,01,08,2025,00,00*62
NAV 2025/08/01 00:01:09.429 GPS $GPRMC,000109.00,A,4437.511510,N,12402.054841,W,0.01,0.0,010825,,,D*72
NAV 2025/08/01 00:01:09.429 GPS $GPVTG,0.0,T,,M,0.01,N,0.01,K,D*08
NAV 2025/08/01 00:01:09.524 GPS $GPGGA,000109.00,4437.511510,N,12402.054841,W,2,09,0.9,26.375,M,-23.247,M,5.0,0131*49
NAV 2025/08/01 00:01:10.229 GPS $GPZDA,000110.00,01,08,2025,00,00*6A
NAV 2025/08/01 00:01:10.429 GPS $GPRMC,000110.00,A,4437.511512,N,12402.054850,W,0.01,251.6,010825,,,D*78
NAV 2025/08/01 00:01:10.429 GPS $GPVTG,251.6,T,,M,0.01,N,0.01,K,D*08
NAV 2025/08/01 00:01:10.533 GPS $GPGGA,000110.00,4437.511512,N,12402.054850,W,2,09,0.9,26.386,M,-23.247,M,2.0,0131*48
NAV 2025/08/01 00:01:11.227 GPS $GPZDA,000111.00,01,08,2025,00,00*6B
NAV 2025/08/01 00:01:11.427 GPS $GPRMC,000111.00,A,4437.511526,N,12402.054845,W,0.01,188.1,010825,,,D*7A
NAV 2025/08/01 00:01:11.427 GPS $GPVTG,188.1,T,,M,0.01,N,0.02,K,D*0B
NAV 2025/08/01 00:01:11.530 GPS $GPGGA,000111.00,4437.511526,N,12402.054845,W,2,09,0.9,26.383,M,-23.247,M,2.0,0131*4F
NAV 2025/08/01 00:01:12.228 GPS $GPZDA,000112.00,01,08,2025,00,00*68
NAV 2025/08/01 00:01:12.428 GPS $GPRMC,000112.00,A,4437.511555,N,12402.054807,W,0.00,180.0,010825,,,D*73
NAV 2025/08/01 00:01:12.428 GPS $GPVTG,180.0,T,,M,0.00,N,0.01,K,D*00
NAV 2025/08/01 00:01:12.531 GPS $GPGGA,000112.00,4437.511555,N,12402.054807,W,2,09,0.9,26.276,M,-23.247,M,2.0,0131*45
NAV 2025/08/01 00:01:13.228 GPS $GPZDA,000113.00,01,08,2025,00,00*69
NAV 2025/08/01 00:01:13.428 GPS $GPRMC,000113.00,A,4437.511569,N,12402.054781,W,0.01,90.0,010825,,,D*4D
NAV 2025/08/01 00:01:13.428 GPS $GPVTG,90.0,T,,M,0.01,N,0.01,K,D*31
NAV 2025/08/01 00:01:13.527 GPS $GPGGA,000113.00,4437.511569,N,12402.054781,W,2,09,0.9,26.208,M,-23.247,M,3.0,0131*42
NAV 2025/08/01 00:01:14.227 GPS $GPZDA,000114.00,01,08,2025,00,00*6E
NAV 2025/08/01 00:01:14.427 GPS $GPRMC,000114.00,A,4437.511574,N,12402.054766,W,0.02,185.7,010825,,,D*7E
NAV 2025/08/01 00:01:14.427 GPS $GPVTG,185.7,T,,M,0.02,N,0.04,K,D*05
NAV 2025/08/01 00:01:14.531 GPS $GPGGA,000114.00,4437.511574,N,12402.054766,W,2,09,0.9,26.170,M,-23.247,M,4.0,0131*4B
NAV 2025/08/01 00:01:15.227 GPS $GPZDA,000115.00,01,08,2025,00,00*6F
NAV 2025/08/01 00:01:15.427 GPS $GPRMC,000115.00,A,4437.511578,N,12402.054754,W,0.01,108.4,010825,,,D*77
NAV 2025/08/01 00:01:15.428 GPS $GPVTG,108.4,T,,M,0.01,N,0.01,K,D*05
NAV 2025/08/01 00:01:15.531 GPS $GPGGA,000115.00,4437.511578,N,12402.054754,W,2,09,0.9,26.147,M,-23.247,M,5.0,0131*42
NAV 2025/08/01 00:01:16.227 GPS $GPZDA,000116.00,01,08,2025,00,00*6C
NAV 2025/08/01 00:01:16.427 GPS $GPRMC,000116.00,A,4437.511574,N,12402.054742,W,0.01,180.0,010825,,,D*7B
NAV 2025/08/01 00:01:16.427 GPS $GPVTG,180.0,T,,M,0.01,N,0.02,K,D*02
NAV 2025/08/01 00:01:16.531 GPS $GPGGA,000116.00,4437.511574,N,12402.054742,W,2,09,0.9,26.131,M,-23.247,M,2.0,0131*4C
NAV 2025/08/01 00:01:17.227 GPS $GPZDA,000117.00,01,08,2025,00,00*6D
NAV 2025/08/01 00:01:17.427 GPS $GPRMC,000117.00,A,4437.511555,N,12402.054747,W,0.00,153.4,010825,,,D*77
NAV 2025/08/01 00:01:17.427 GPS $GPVTG,153.4,T,,M,0.00,N,0.01,K,D*0A
NAV 2025/08/01 00:01:17.531 GPS $GPGGA,000117.00,4437.511555,N,12402.054747,W,2,09,0.9,26.114,M,-23.247,M,2.0,0131*4C
NAV 2025/08/01 00:01:18.227 GPS $GPZDA,000118.00,01,08,2025,00,00*62
NAV 2025/08/01 00:01:18.427 GPS $GPRMC,000118.00,A,4437.511540,N,12402.054764,W,0.01,180.0,010825,,,D*76
NAV 2025/08/01 00:01:18.427 GPS $GPVTG,180.0,T,,M,0.01,N,0.02,K,D*02
NAV 2025/08/01 00:01:18.531 GPS $GPGGA,000118.00,4437.511540,N,12402.054764,W,2,09,0.9,26.178,M,-23.247,M,2.0,0131*4C
NAV 2025/08/01 00:01:19.227 GPS $GPZDA,000119.00,01,08,2025,00,00*63
NAV 2025/08/01 00:01:19.427 GPS $GPRMC,000119.00,A,4437.511533,N,12402.054774,W,0.00,90.0,010825,,,D*43
NAV 2025/08/01 00:01:19.427 GPS $GPVTG,90.0,T,,M,0.00,N,0.00,K,D*31
NAV 2025/08/01 00:01:19.527 GPS $GPGGA,000119.00,4437.511533,N,12402.054774,W,2,09,0.9,26.211,M,-23.247,M,3.0,0131*45
NAV 2025/08/01 00:01:20.227 GPS $GPZDA,000120.00,01,08,2025,00,00*69
NAV 2025/08/01 00:01:20.427 GPS $GPRMC,000120.00,A,4437.511525,N,12402.054780,W,0.01,56.3,010825,,,D*4D
NAV 2025/08/01 00:01:20.427 GPS $GPVTG,56.3,T,,M,0.01,N,0.01,K,D*38
NAV 2025/08/01 00:01:20.526 GPS $GPGGA,000120.00,4437.511525,N,12402.054780,W,2,09,0.9,26.227,M,-23.247,M,4.0,0131*41
NAV 2025/08/01 00:01:21.227 GPS $GPZDA,000121.00,01,08,2025,00,00*68
NAV 2025/08/01 00:01:21.427 GPS $GPRMC,000121.00,A,4437.511518,N,12402.054783,W,0.01,45.0,010825,,,D*40
NAV 2025/08/01 00:01:21.427 GPS $GPVTG,45.0,T,,M,0.01,N,0.02,K,D*3A
NAV 2025/08/01 00:01:21.526 GPS $GPGGA,000121.00,4437.511518,N,12402.054783,W,2,09,0.9,26.234,M,-23.247,M,5.0,0131*4E
NAV 2025/08/01 00:01:22.227 GPS $GPZDA,000122.00,01,08,2025,00,00*6B
NAV 2025/08/01 00:01:22.427 GPS $GPRMC,000122.00,A,4437.511524,N,12402.054794,W,0.00,26.6,010825,,,D*48
NAV 2025/08/01 00:01:22.427 GPS $GPVTG,26.6,T,,M,0.00,N,0.01,K,D*3B
NAV 2025/08/01 00:01:22.526 GPS $GPGGA,000122.00,4437.511524,N,12402.054794,W,2,09,0.9,26.254,M,-23.247,M,2.0,0131*45
NAV 2025/08/01 00:01:23.227 GPS $GPZDA,000123.00,01,08,2025,00,00*6A
NAV 2025/08/01 00:01:23.427 GPS $GPRMC,000123.00,A,4437.511545,N,12402.054786,W,0.00,90.0,010825,,,D*46
NAV 2025/08/01 00:01:23.427 GPS $GPVTG,90.0,T,,M,0.00,N,0.00,K,D*31
NAV 2025/08/01 00:01:23.527 GPS $GPGGA,000123.00,4437.511545,N,12402.054786,W,2,09,0.9,26.267,M,-23.247,M,2.0,0131*40
NAV 2025/08/01 00:01:24.227 GPS $GPZDA,000124.00,01,08,2025,00,00*6D
NAV 2025/08/01 00:01:24.427 GPS $GPRMC,000124.00,A,4437.511563,N,12402.054765,W,0.01,33.7,010825,,,D*47
NAV 2025/08/01 00:01:24.427 GPS $GPVTG,33.7,T,,M,0.01,N,0.01,K,D*3F
NAV 2025/08/01 00:01:24.526 GPS $GPGGA,000124.00,4437.511563,N,12402.054765,W,2,09,0.9,26.208,M,-23.247,M,2.0,0131*47
NAV 2025/08/01 00:01:25.227 GPS $GPZDA,000125.00,01,08,2025,00,00*6C
NAV 2025/08/01 00:01:25.427 GPS $GPRMC,000125.00,A,4437.511573,N,12402.054753,W,0.01,0.0,010825,,,D*75
NAV 2025/08/01 00:01:25.427 GPS $GPVTG,0.0,T,,M,0.01,N,0.01,K,D*08
NAV 2025/08/01 00:01:25.522 GPS $GPGGA,000125.00,4437.511573,N,12402.054753,W,2,09,0.9,26.170,M,-23.247,M,3.0,0131*4F
NAV 2025/08/01 00:01:26.227 GPS $GPZDA,000126.00,01,08,2025,00,00*6F
NAV 2025/08/01 00:01:26.427 GPS $GPRMC,000126.00,A,4437.511580,N,12402.054747,W,0.01,284.0,010825,,,D*71
NAV 2025/08/01 00:01:26.427 GPS $GPVTG,284.0,T,,M,0.01,N,0.01,K,D*06
NAV 2025/08/01 00:01:26.530 GPS $GPGGA,000126.00,4437.511580,N,12402.054747,W,2,09,0.9,26.154,M,-23.247,M,4.0,0131*44
NAV 2025/08/01 00:01:27.227 GPS $GPZDA,000127.00,01,08,2025,00,00*6E
NAV 2025/08/01 00:01:27.427 GPS $GPRMC,000127.00,A,4437.511585,N,12402.054741,W,0.01,0.0,010825,,,D*7D
NAV 2025/08/01 00:01:27.427 GPS $GPVTG,0.0,T,,M,0.01,N,0.02,K,D*0B
NAV 2025/08/01 00:01:27.522 GPS $GPGGA,000127.00,4437.511585,N,12402.054741,W,2,09,0.9,26.142,M,-23.247,M,5.0,0131*40
NAV 2025/08/01 00:01:28.227 GPS $GPZDA,000128.00,01,08,2025,00,00*61
NAV 2025/08/01 00:01:28.427 GPS $GPRMC,000128.00,A,4437.511585,N,12402.054733,W,0.01,303.7,010825,,,D*70
NAV 2025/08/01 00:01:28.427 GPS $GPVTG,303.7,T,,M,0.01,N,0.01,K,D*0F
NAV 2025/08/01 00:01:28.530 GPS $GPGGA,000128.00,4437.511585,N,12402.054733,W,2,09,0.9,26.142,M,-23.247,M,2.0,0131*4D
NAV 2025/08/01 00:01:29.230 GPS $GPZDA,000129.00,01,08,2025,00,00*60
NAV 2025/08/01 00:01:29.430 GPS $GPRMC,000129.00,A,4437.511570,N,12402.054740,W,0.00,270.0,010825,,,D*7C
NAV 2025/08/01 00:01:29.430 GPS $GPVTG,270.0,T,,M,0.00,N,0.01,K,D*0C
NAV 2025/08/01 00:01:29.534 GPS $GPGGA,000129.00,4437.511570,N,12402.054740,W,2,09,0.9,26.137,M,-23.247,M,2.0,0131*40
NAV 2025/08/01 00:01:30.230 GPS $GPZDA,000130.00,01,08,2025,00,00*68
NAV 2025/08/01 00:01:30.430 GPS $GPRMC,000130.00,A,4437.511551,N,12402.054763,W,0.02,225.0,010825,,,D*74
NAV 2025/08/01 00:01:30.430 GPS $GPVTG,225.0,T,,M,0.02,N,0.04,K,D*0B
NAV 2025/08/01 00:01:30.534 GPS $GPGGA,000130.00,4437.511551,N,12402.054763,W,2,09,0.9,26.199,M,-23.247,M,2.0,0131*4E
NAV 2025/08/01 00:01:31.226 GPS $GPZDA,000131.00,01,08,2025,00,00*69
NAV 2025/08/01 00:01:31.426 GPS $GPRMC,000131.00,A,4437.511546,N,12402.054777,W,0.01,323.1,010825,,,D*73
NAV 2025/08/01 00:01:31.426 GPS $GPVTG,323.1,T,,M,0.01,N,0.02,K,D*08
NAV 2025/08/01 00:01:31.530 GPS $GPGGA,000131.00,4437.511546,N,12402.054777,W,2,09,0.9,26.231,M,-23.247,M,3.0,0131*4C
NAV 2025/08/01 00:01:32.226 GPS $GPZDA,000132.00,01,08,2025,00,00*6A
NAV 2025/08/01 00:01:32.426 GPS $GPRMC,000132.00,A,4437.511537,N,12402.054788,W,0.02,215.5,010825,,,D*75
NAV 2025/08/01 00:01:32.426 GPS $GPVTG,215.5,T,,M,0.02,N,0.03,K,D*0A
NAV 2025/08/01 00:01:32.530 GPS $GPGGA,000132.00,4437.511537,N,12402.054788,W,2,09,0.9,26.246,M,-23.247,M,4.0,0131*4E
NAV 2025/08/01 00:01:33.226 GPS $GPZDA,000133.00,01,08,2025,00,00*6B
NAV 2025/08/01 00:01:33.426 GPS $GPRMC,000133.00,A,4437.511534,N,12402.054795,W,0.01,233.1,010825,,,D*78
NAV 2025/08/01 00:01:33.426 GPS $GPVTG,233.1,T,,M,0.01,N,0.02,K,D*08
NAV 2025/08/01 00:01:33.530 GPS $GPGGA,000133.00,4437.511534,N,12402.054795,W,2,09,0.9,26.250,M,-23.247,M,5.0,0131*46
NAV 2025/08/01 00:01:34.227 GPS $GPZDA,000134.00,01,08,2025,00,00*6C
NAV 2025/08/01 00:01:34.427 GPS $GPRMC,000134.00,A,4437.511532,N,12402.054811,W,0.01,225.0,010825,,,D*7C
NAV 2025/08/01 00:01:34.427 GPS $GPVTG,225.0,T,,M,0.01,N,0.02,K,D*0E
NAV 2025/08/01 00:01:34.531 GPS $GPGGA,000134.00,4437.511532,N,12402.054811,W,2,09,0.9,26.253,M,-23.247,M,2.0,0131*40
NAV 2025/08/01 00:01:35.227 GPS $GPZDA,000135.00,01,08,2025,00,00*6D
NAV 2025/08/01 00:01:35.427 GPS $GPRMC,000135.00,A,4437.511553,N,12402.054806,W,0.01,0.0,010825,,,D*79
NAV 2025/08/01 00:01:35.427 GPS $GPVTG,0.0,T,,M,0.01,N,0.01,K,D*08
NAV 2025/08/01 00:01:35.522 GPS $GPGGA,000135.00,4437.511553,N,12402.054806,W,2,09,0.9,26.262,M,-23.247,M,2.0,0131*42
NAV 2025/08/01 00:01:36.227 GPS $GPZDA,000136.00,01,08,2025,00,00*6E
NAV 2025/08/01 00:01:36.427 GPS $GPRMC,000136.00,A,4437.511565,N,12402.054791,W,0.01,239.0,010825,,,D*76
NAV 2025/08/01 00:01:36.427 GPS $GPVTG,239.0,T,,M,0.01,N,0.02,K,D*03
NAV 2025/08/01 00:01:36.531 GPS $GPGGA,000136.00,4437.511565,N,12402.054791,W,2,09,0.9,26.206,M,-23.247,M,2.0,0131*47
NAV 2025/08/01 00:01:37.227 GPS $GPZDA,000137.00,01,08,2025,00,00*6F
NAV 2025/08/01 00:01:37.427 GPS $GPRMC,000137.00,A,4437.511572,N,12402.054783,W,0.01,348.7,010825,,,D*72
NAV 2025/08/01 00:01:37.427 GPS $GPVTG,348.7,T,,M,0.01,N,0.02,K,D*03
NAV 2025/08/01 00:01:37.531 GPS $GPGGA,000137.00,4437.511572,N,12402.054783,W,2,09,0.9,26.160,M,-23.247,M,3.0,0131*41
NAV 2025/08/01 00:01:38.227 GPS $GPZDA,000138.00,01,08,2025,00,00*60
NAV 2025/08/01 00:01:38.427 GPS $GPRMC,000138.00,A,4437.511577,N,12402.054779,W,0.01,341.6,010825,,,D*75
NAV 2025/08/01 00:01:38.427 GPS $GPVTG,341.6,T,,M,0.01,N,0.01,K,D*08
NAV 2025/08/01 00:01:38.531 GPS $GPGGA,000138.00,4437.511577,N,12402.054779,W,2,09,0.9,26.133,M,-23.247,M,4.0,0131*4F
NAV 2025/08/01 00:01:39.227 GPS $GPZDA,000139.00,01,08,2025,00,00*61
NAV 2025/08/01 00:01:39.427 GPS $GPRMC,000139.00,A,4437.511581,N,12402.054777,W,0.01,270.0,010825,,,D*76
NAV 2025/08/01 00:01:39.427 GPS $GPVTG,270.0,T,,M,0.01,N,0.01,K,D*0D
NAV 2025/08/01 00:01:39.530 GPS $GPGGA,000139.00,4437.511581,N,12402.054777,W,2,09,0.9,26.110,M,-23.247,M,5.0,0131*49
NAV 2025/08/01 00:01:40.227 GPS $GPZDA,000140.00,01,08,2025,00,00*6F
NAV 2025/08/01 00:01:40.427 GPS $GPRMC,000140.00,A,4437.511584,N,12402.054767,W,0.01,0.0,010825,,,D*79
NAV 2025/08/01 00:01:40.427 GPS $GPVTG,0.0,T,,M,0.01,N,0.01,K,D*08
NAV 2025/08/01 00:01:40.522 GPS $GPGGA,000140.00,4437.511584,N,12402.054767,W,2,09,0.9,26.093,M,-23.247,M,2.0,0131*4E
NAV 2025/08/01 00:01:41.227 GPS $GPZDA,000141.00,01,08,2025,00,00*6E
NAV 2025/08/01 00:01:41.427 GPS $GPRMC,000141.00,A,4437.511579,N,12402.054767,W,0.01,8.1,010825,,,D*73
NAV 2025/08/01 00:01:41.427 GPS $GPVTG,8.1,T,,M,0.01,N,0.02,K,D*02
NAV 2025/08/01 00:01:41.522 GPS $GPGGA,000141.00,4437.511579,N,12402.054767,W,2,09,0.9,26.105,M,-23.247,M,2.0,0131*43
NAV 2025/08/01 00:01:42.230 GPS $GPZDA,000142.00,01,08,2025,00,00*6D
NAV 2025/08/01 00:01:42.430 GPS $GPRMC,000142.00,A,4437.511567,N,12402.054784,W,0.00,333.4,010825,,,D*7D
NAV 2025/08/01 00:01:42.430 GPS $GPVTG,333.4,T,,M,0.00,N,0.01,K,D*0E
NAV 2025/08/01 00:01:42.533 GPS $GPGGA,000142.00,4437.511567,N,12402.054784,W,2,09,0.9,26.170,M,-23.247,M,2.0,0131*40
NAV 2025/08/01 00:01:43.227 GPS $GPZDA,000143.00,01,08,2025,00,00*6C
NAV 2025/08/01 00:01:43.427 GPS $GPRMC,000143.00,A,4437.511561,N,12402.054791,W,0.00,26.6,010825,,,D*4B
NAV 2025/08/01 00:01:43.427 GPS $GPVTG,26.6,T,,M,0.00,N,0.01,K,D*3B
NAV 2025/08/01 00:01:43.526 GPS $GPGGA,000143.00,4437.511561,N,12402.054791,W,2,09,0.9,26.212,M,-23.247,M,3.0,0131*45
NAV 2025/08/01 00:01:44.227 GPS $GPZDA,000144.00,01,08,2025,00,00*6B
NAV 2025/08/01 00:01:44.427 GPS $GPRMC,000144.00,A,4437.511555,N,12402.054795,W,0.01,14.0,010825,,,D*49
NAV 2025/08/01 00:01:44.427 GPS $GPVTG,14.0,T,,M,0.01,N,0.01,K,D*3D
NAV 2025/08/01 00:01:44.526 GPS $GPGGA,000144.00,4437.511555,N,12402.054795,W,2,09,0.9,26.234,M,-23.247,M,4.0,0131*42
NAV 2025/08/01 00:01:45.228 GPS $GPZDA,000145.00,01,08,2025,00,00*6A
NAV 2025/08/01 00:01:45.428 GPS $GPRMC,000145.00,A,4437.511551,N,12402.054797,W,0.00,63.4,010825,,,D*4B
NAV 2025/08/01 00:01:45.428 GPS $GPVTG,63.4,T,,M,0.00,N,0.01,K,D*38
NAV 2025/08/01 00:01:45.528 GPS $GPGGA,000145.00,4437.511551,N,12402.054797,W,2,09,0.9,26.244,M,-23.247,M,5.0,0131*43
NAV 2025/08/01 00:01:46.227 GPS $GPZDA,000146.00,01,08,2025,00,00*69
NAV 2025/08/01 00:01:46.427 GPS $GPRMC,000146.00,A,4437.511550,N,12402.054807,W,0.00,90.0,010825,,,D*47
NAV 2025/08/01 00:01:46.427 GPS $GPVTG,90.0,T,,M,0.00,N,0.01,K,D*30
NAV 2025/08/01 00:01:46.527 GPS $GPGGA,000146.00,4437.511550,N,12402.054807,W,2,09,0.9,26.248,M,-23.247,M,2.0,0131*4C
NAV 2025/08/01 00:01:47.231 GPS $GPZDA,000147.00,01,08,2025,00,00*68
NAV 2025/08/01 00:01:47.431 GPS $GPRMC,000147.00,A,4437.511554,N,12402.054807,W,0.01,170.5,010825,,,D*79
NAV 2025/08/01 00:01:47.431 GPS $GPVTG,170.5,T,,M,0.01,N,0.02,K,D*08
NAV 2025/08/01 00:01:47.535 GPS $GPGGA,000147.00,4437.511554,N,12402.054807,W,2,09,0.9,26.229,M,-23.247,M,2.0,0131*4E
NAV 2025/08/01 00:01:48.226 GPS $GPZDA,000148.00,01,08,2025,00,00*67
NAV 2025/08/01 00:01:48.426 GPS $GPRMC,000148.00,A,4437.511560,N,12402.054793,W,0.00,180.0,010825,,,D*78
NAV 2025/08/01 00:01:48.426 GPS $GPVTG,180.0,T,,M,0.00,N,0.00,K,D*01
NAV 2025/08/01 00:01:48.530 GPS $GPGGA,000148.00,4437.511560,N,12402.054793,W,2,09,0.9,26.151,M,-23.247,M,2.0,0131*48
NAV 2025/08/01 00:01:49.226 GPS $GPZDA,000149.00,01,08,2025,00,00*66
NAV 2025/08/01 00:01:49.426 GPS $GPRMC,000149.00,A,4437.511565,N,12402.054784,W,0.00,153.4,010825,,,D*70
NAV 2025/08/01 00:01:49.426 GPS $GPVTG,153.4,T,,M,0.00,N,0.01,K,D*0A
NAV 2025/08/01 00:01:49.529 GPS $GPGGA,000149.00,4437.511565,N,12402.054784,W,2,09,0.9,26.111,M,-23.247,M,3.0,0131*4F
NAV 2025/08/01 00:01:50.226 GPS $GPZDA,000150.00,01,08,2025,00,00*6E
NAV 2025/08/01 00:01:50.426 GPS $GPRMC,000150.00,A,4437.511568,N,12402.054778,W,0.00,90.0,010825,,,D*4C
NAV 2025/08/01 00:01:50.426 GPS $GPVTG,90.0,T,,M,0.00,N,0.00,K,D*31
NAV 2025/08/01 00:01:50.525 GPS $GPGGA,000150.00,4437.511568,N,12402.054778,W,2,09,0.9,26.083,M,-23.247,M,4.0,0131*44
NAV 2025/08/01 00:01:51.226 GPS $GPZDA,000151.00,01,08,2025,00,00*6F
NAV 2025/08/01 00:01:51.426 GPS $GPRMC,000151.00,A,4437.511573,N,12402.054772,W,0.01,135.0,010825,,,D*72
NAV 2025/08/01 00:01:51.426 GPS $GPVTG,135.0,T,,M,0.01,N,0.01,K,D*0F
NAV 2025/08/01 00:01:51.529 GPS $GPGGA,000151.00,4437.511573,N,12402.054772,W,2,09,0.9,26.071,M,-23.247,M,5.0,0131*49
NAV 2025/08/01 00:01:52.226 GPS $GPZDA,000152.00,01,08,2025,00,00*6C
NAV 2025/08/01 00:01:52.426 GPS $GPRMC,000152.00,A,4437.511571,N,12402.054762,W,0.01,166.0,010825,,,D*74
NAV 2025/08/01 00:01:52.426 GPS $GPVTG,166.0,T,,M,0.01,N,0.01,K,D*09
NAV 2025/08/01 00:01:52.530 GPS $GPGGA,000152.00,4437.511571,N,12402.054762,W,2,09,0.9,26.063,M,-23.247,M,2.0,0131*4D
NAV 2025/08/01 00:01:53.226 GPS $GPZDA,000153.00,01,08,2025,00,00*6D
NAV 2025/08/01 00:01:53.426 GPS $GPRMC,000153.00,A,4437.511561,N,12402.054761,W,0.01,108.4,010825,,,D*7B
NAV 2025/08/01 00:01:53.426 GPS $GPVTG,108.4,T,,M,0.01,N,0.01,K,D*05
NAV 2025/08/01 00:01:53.529 GPS $GPGGA,000153.00,4437.511561,N,12402.054761,W,2,09,0.9,26.074,M,-23.247,M,2.0,0131*48
NAV 2025/08/01 00:01:54.226 GPS $GPZDA,000154.00,01,08,2025,00,00*6A
NAV 2025/08/01 00:01:54.426 GPS $GPRMC,000154.00,A,4437.511555,N,12402.054771,W,0.01,38.7,010825,,,D*4B
NAV 2025/08/01 00:01:54.426 GPS $GPVTG,38.7,T,,M,0.01,N,0.02,K,D*37
NAV 2025/08/01 00:01:54.525 GPS $GPGGA,000154.00,4437.511555,N,12402.054771,W,2,09,0.9,26.147,M,-23.247,M,2.0,0131*48
NAV 2025/08/01 00:01:55.226 GPS $GPZDA,000155.00,01,08,2025,00,00*6B
NAV 2025/08/01 00:01:55.426 GPS $GPRMC,000155.00,A,4437.511549,N,12402.054779,W,0.00,116.6,010825,,,D*72
NAV 2025/08/01 00:01:55.426 GPS $GPVTG,116.6,T,,M,0.00,N,0.01,K,D*09
NAV 2025/08/01 00:01:55.530 GPS $GPGGA,000155.00,4437.511549,N,12402.054779,W,2,09,0.9,26.195,M,-23.247,M,3.0,0131*42
NAV 2025/08/01 00:01:56.226 GPS $GPZDA,000156.00,01,08,2025,00,00*68
NAV 2025/08/01 00:01:56.426 GPS $GPRMC,000156.00,A,4437.511548,N,12402.054782,W,0.01,108.4,010825,,,D*78
NAV 2025/08/01 00:01:56.427 GPS $GPVTG,108.4,T,,M,0.01,N,0.01,K,D*05
NAV 2025/08/01 00:01:56.530 GPS $GPGGA,000156.00,4437.511548,N,12402.054782,W,2,09,0.9,26.221,M,-23.247,M,4.0,0131*4F
NAV 2025/08/01 00:01:57.226 GPS $GPZDA,000157.00,01,08,2025,00,00*69
NAV 2025/08/01 00:01:57.426 GPS $GPRMC,000157.00,A,4437.511546,N,12402.054783,W,0.01,90.0,010825,,,D*42
NAV 2025/08/01 00:01:57.427 GPS $GPVTG,90.0,T,,M,0.01,N,0.01,K,D*31
NAV 2025/08/01 00:01:57.526 GPS $GPGGA,000157.00,4437.511546,N,12402.054783,W,2,09,0.9,26.237,M,-23.247,M,5.0,0131*47
NAV 2025/08/01 00:01:58.226 GPS $GPZDA,000158.00,01,08,2025,00,00*66
NAV 2025/08/01 00:01:58.426 GPS $GPRMC,000158.00,A,4437.511548,N,12402.054789,W,0.01,90.0,010825,,,D*49
NAV 2025/08/01 00:01:58.426 GPS $GPVTG,90.0,T,,M,0.01,N,0.02,K,D*32
NAV 2025/08/01 00:01:58.526 GPS $GPGGA,000158.00,4437.511548,N,12402.054789,W,2,09,0.9,26.247,M,-23.247,M,2.0,0131*4C
NAV 2025/08/01 00:01:59.226 GPS $GPZDA,000159.00,01,08,2025,00,00*67
NAV 2025/08/01 00:01:59.426 GPS $GPRMC,000159.00,A,4437.511561,N,12402.054787,W,0.01,146.3,010825,,,D*74
NAV 2025/08/01 00:01:59.426 GPS $GPVTG,146.3,T,,M,0.01,N,0.01,K,D*08
NAV 2025/08/01 00:01:59.530 GPS $GPGGA,000159.00,4437.511561,N,12402.054787,W,2,09,0.9,26.237,M,-23.247,M,2.0,0131*4F
NAV 2025/08/01 00:02:00.226 GPS $GPZDA,000200.00,01,08,2025,00,00*68
NAV 2025/08/01 00:02:00.426 GPS $GPRMC,000200.00,A,4437.511571,N,12402.054771,W,0.01,90.0,010825,,,D*4A
NAV 2025/08/01 00:02:00.426 GPS $GPVTG,90.0,T,,M,0.01,N,0.01,K,D*31
NAV 2025/08/01 00:02:00.525 GPS $GPGGA,000200.00,4437.511571,N,12402.054771,W,2,09,0.9,26.164,M,-23.247,M,2.0,0131*4D
NAV 2025/08/01 00:02:01.230 GPS $GPZDA,000201.00,01,08,2025,00,00*69
NAV 2025/08/01 00:02:01.430 GPS $GPRMC,000201.00,A,4437.511579,N,12402.054760,W,0.00,153.4,010825,,,D*78
NAV 2025/08/01 00:02:01.430 GPS $GPVTG,153.4,T,,M,0.00,N,0.01,K,D*0A
NAV 2025/08/01 00:02:01.533 GPS $GPGGA,000201.00,4437.511579,N,12402.054760,W,2,09,0.9,26.121,M,-23.247,M,3.0,0131*44
NAV 2025/08/01 00:02:02.230 GPS $GPZDA,000202.00,01,08,2025,00,00*6A
NAV 2025/08/01 00:02:02.430 GPS $GPRMC,000202.00,A,4437.511589,N,12402.054751,W,0.01,18.4,010825,,,D*49
NAV 2025/08/01 00:02:02.430 GPS $GPVTG,18.4,T,,M,0.01,N,0.01,K,D*35
NAV 2025/08/01 00:02:02.530 GPS $GPGGA,000202.00,4437.511589,N,12402.054751,W,2,09,0.9,26.097,M,-23.247,M,4.0,0131*41
NAV 2025/08/01 00:02:03.226 GPS $GPZDA,000203.00,01,08,2025,00,00*6B
NAV 2025/08/01 00:02:03.426 GPS $GPRMC,000203.00,A,4437.511593,N,12402.054744,W,0.01,108.4,010825,,,D*77
NAV 2025/08/01 00:02:03.426 GPS $GPVTG,108.4,T,,M,0.01,N,0.01,K,D*05
NAV 2025/08/01 00:02:03.530 GPS $GPGGA,000203.00,4437.511593,N,12402.054744,W,2,09,0.9,26.080,M,-23.247,M,5.0,0131*48
NAV 2025/08/01 00:02:04.227 GPS $GPZDA,000204.00,01,08,2025,00,00*6C
NAV 2025/08/01 00:02:04.427 GPS $GPRMC,000204.00,A,4437.511594,N,12402.054731,W,0.01,71.6,010825,,,D*48
NAV 2025/08/01 00:02:04.427 GPS $GPVTG,71.6,T,,M,0.01,N,0.01,K,D*38
NAV 2025/08/01 00:02:04.526 GPS $GPGGA,000204.00,4437.511594,N,12402.054731,W,2,09,0.9,26.076,M,-23.247,M,2.0,0131*44
NAV 2025/08/01 00:02:05.227 GPS $GPZDA,000205.00,01,08,2025,00,00*6D
NAV 2025/08/01 00:02:05.427 GPS $GPRMC,000205.00,A,4437.511586,N,12402.054728,W,0.01,45.0,010825,,,D*43
NAV 2025/08/01 00:02:05.427 GPS $GPVTG,45.0,T,,M,0.01,N,0.01,K,D*39
NAV 2025/08/01 00:02:05.526 GPS $GPGGA,000205.00,4437.511586,N,12402.054728,W,2,09,0.9,26.086,M,-23.247,M,2.0,0131*41
NAV 2025/08/01 00:02:06.231 GPS $GPZDA,000206.00,01,08,2025,00,00*6E
NAV 2025/08/01 00:02:06.431 GPS $GPRMC,000206.00,A,4437.511578,N,12402.054738,W,0.01,161.6,010825,,,D*71
NAV 2025/08/01 00:02:06.431 GPS $GPVTG,161.6,T,,M,0.01,N,0.01,K,D*08
NAV 2025/08/01 00:02:06.534 GPS $GPGGA,000206.00,4437.511578,N,12402.054738,W,2,09,0.9,26.162,M,-23.247,M,2.0,0131*49
NAV 2025/08/01 00:02:07.227 GPS $GPZDA,000207.00,01,08,2025,00,00*6F
NAV 2025/08/01 00:02:07.427 GPS $GPRMC,000207.00,A,4437.511571,N,12402.054746,W,0.00,153.4,010825,,,D*72
NAV 2025/08/01 00:02:07.427 GPS $GPVTG,153.4,T,,M,0.00,N,0.01,K,D*0A
NAV 2025/08/01 00:02:07.531 GPS $GPGGA,000207.00,4437.511571,N,12402.054746,W,2,09,0.9,26.205,M,-23.247,M,3.0,0131*4B
NAV 2025/08/01 00:02:08.227 GPS $GPZDA,000208.00,01,08,2025,00,00*60
NAV 2025/08/01 00:02:08.427 GPS $GPRMC,000208.00,A,4437.511570,N,12402.054752,W,0.01,11.3,010825,,,D*48
NAV 2025/08/01 00:02:08.427 GPS $GPVTG,11.3,T,,M,0.01,N,0.02,K,D*38
NAV 2025/08/01 00:02:08.527 GPS $GPGGA,000208.00,4437.511570,N,12402.054752,W,2,09,0.9,26.238,M,-23.247,M,4.0,0131*49
NAV 2025/08/01 00:02:09.227 GPS $GPZDA,000209.00,01,08,2025,00,00*61
NAV 2025/08/01 00:02:09.427 GPS $GPRMC,000209.00,A,4437.511568,N,12402.054757,W,0.00,270.0,010825,,,D*72
NAV 2025/08/01 00:02:09.427 GPS $GPVTG,270.0,T,,M,0.00,N,0.01,K,D*0C
NAV 2025/08/01 00:02:09.531 GPS $GPGGA,000209.00,4437.511568,N,12402.054757,W,2,09,0.9,26.258,M,-23.247,M,5.0,0131*43
NAV 2025/08/01 00:02:10.227 GPS $GPZDA,000210.00,01,08,2025,00,00*69
NAV 2025/08/01 00:02:10.427 GPS $GPRMC,000210.00,A,4437.511575,N,12402.054767,W,0.01,0.0,010825,,,D*71
NAV 2025/08/01 00:02:10.427 GPS $GPVTG,0.0,T,,M,0.01,N,0.02,K,D*0B
NAV 2025/08/01 00:02:10.523 GPS $GPGGA,000210.00,4437.511575,N,12402.054767,W,2,09,0.9,26.273,M,-23.247,M,2.0,0131*4A
NAV 2025/08/01 00:02:11.227 GPS $GPZDA,000211.00,01,08,2025,00,00*68
NAV 2025/08/01 00:02:11.427 GPS $GPRMC,000211.00,A,4437.511587,N,12402.054769,W,0.01,194.0,010825,,,D*7F
NAV 2025/08/01 00:02:11.427 GPS $GPVTG,194.0,T,,M,0.01,N,0.01,K,D*04
NAV 2025/08/01 00:02:11.531 GPS $GPGGA,000211.00,4437.511587,N,12402.054769,W,2,09,0.9,26.260,M,-23.247,M,2.0,0131*4A
NAV 2025/08/01 00:02:12.227 GPS $GPZDA,000212.00,01,08,2025,00,00*6B
NAV 2025/08/01 00:02:12.427 GPS $GPRMC,000212.00,A,4437.511598,N,12402.054759,W,0.01,338.2,010825,,,D*77
NAV 2025/08/01 00:02:12.427 GPS $GPVTG,338.2,T,,M,0.01,N,0.02,K,D*01
NAV 2025/08/01 00:02:12.531 GPS $GPGGA,000212.00,4437.511598,N,12402.054759,W,2,09,0.9,26.189,M,-23.247,M,2.0,0131*40
NAV 2025/08/01 00:02:13.227 GPS $GPZDA,000213.00,01,08,2025,00,00*6A
NAV 2025/08/01 00:02:13.427 GPS $GPRMC,000213.00,A,4437.511603,N,12402.054754,W,0.01,270.0,010825,,,D*75
NAV 2025/08/01 00:02:13.427 GPS $GPVTG,270.0,T,,M,0.01,N,0.01,K,D*0D
NAV 2025/08/01 00:02:13.531 GPS $GPGGA,000213.00,4437.511603,N,12402.054754,W,2,09,0.9,26.142,M,-23.247,M,3.0,0131*4B
NAV 2025/08/01 00:02:14.227 GPS $GPZDA,000214.00,01,08,2025,00,00*6D
NAV 2025/08/01 00:02:14.427 GPS $GPRMC,000214.00,A,4437.511608,N,12402.054753,W,0.01,270.0,010825,,,D*7E
NAV 2025/08/01 00:02:14.427 GPS $GPVTG,270.0,T,,M,0.01,N,0.02,K,D*0E
NAV 2025/08/01 00:02:14.531 GPS $GPGGA,000214.00,4437.511608,N,12402.054753,W,2,09,0.9,26.113,M,-23.247,M,4.0,0131*43
NAV 2025/08/01 00:02:15.227 GPS $GPZDA,000215.00,01,08,2025,00,00*6C
NAV 2025/08/01 00:02:15.427 GPS $GPRMC,000215.00,A,4437.511614,N,12402.054753,W,0.01,303.7,010825,,,D*70
NAV 2025/08/01 00:02:15.427 GPS $GPVTG,303.7,T,,M,0.01,N,0.01,K,D*0F
NAV 2025/08/01 00:02:15.531 GPS $GPGGA,000215.00,4437.511614,N,12402.054753,W,2,09,0.9,26.089,M,-23.247,M,5.0,0131*4C
NAV 2025/08/01 00:02:16.226 GPS $GPZDA,000216.00,01,08,2025,00,00*6F
NAV 2025/08/01 00:02:16.426 GPS $GPRMC,000216.00,A,4437.511613,N,12402.054746,W,0.01,320.2,010825,,,D*74
NAV 2025/08/01 00:02:16.426 GPS $GPVTG,320.2,T,,M,0.01,N,0.03,K,D*09
NAV 2025/08/01 00:02:16.530 GPS $GPGGA,000216.00,4437.511613,N,12402.054746,W,2,09,0.9,26.073,M,-23.247,M,2.0,0131*4E
NAV 2025/08/01 00:02:17.227 GPS $GPZDA,000217.00,01,08,2025,00,00*6E
NAV 2025/08/01 00:02:17.427 GPS $GPRMC,000217.00,A,4437.511597,N,12402.054751,W,0.01,248.2,010825,,,D*73
NAV 2025/08/01 00:02:17.427 GPS $GPVTG,248.2,T,,M,0.01,N,0.02,K,D*07
NAV 2025/08/01 00:02:17.530 GPS $GPGGA,000217.00,4437.511597,N,12402.054751,W,2,09,0.9,26.064,M,-23.247,M,2.0,0131*40
NAV 2025/08/01 00:02:18.227 GPS $GPZDA,000218.00,01,08,2025,00,00*61
NAV 2025/08/01 00:02:18.427 GPS $GPRMC,000218.00,A,4437.511585,N,12402.054768,W,0.01,303.7,010825,,,D*7E
NAV 2025/08/01 00:02:18.427 GPS $GPVTG,303.7,T,,M,0.01,N,0.01,K,D*0F
NAV 2025/08/01 00:02:18.530 GPS $GPGGA,000218.00,4437.511585,N,12402.054768,W,2,09,0.9,26.119,M,-23.247,M,2.0,0131*4D
NAV 2025/08/01 00:02:19.227 GPS $GPZDA,000219.00,01,08,2025,00,00*60
NAV 2025/08/01 00:02:19.427 GPS $GPRMC,000219.00,A,4437.511574,N,12402.054781,W,0.01,315.0,010825,,,D*76
NAV 2025/08/01 00:02:19.427 GPS $GPVTG,315.0,T,,M,0.01,N,0.01,K,D*0F
NAV 2025/08/01 00:02:19.530 GPS $GPGGA,000219.00,4437.511574,N,12402.054781,W,2,09,0.9,26.152,M,-23.247,M,3.0,0131*4B
NAV 2025/08/01 00:02:20.227 GPS $GPZDA,000220.00,01,08,2025,00,00*6A
NAV 2025/08/01 00:02:20.427 GPS $GPRMC,000220.00,A,4437.511560,N,12402.054793,W,0.02,206.6,010825,,,D*7C
NAV 2025/08/01 00:02:20.427 GPS $GPVTG,206.6,T,,M,0.02,N,0.03,K,D*0B
NAV 2025/08/01 00:02:20.530 GPS $GPGGA,000220.00,4437.511560,N,12402.054793,W,2,09,0.9,26.172,M,-23.247,M,4.0,0131*42
NAV 2025/08/01 00:02:21.227 GPS $GPZDA,000221.00,01,08,2025,00,00*6B
NAV 2025/08/01 00:02:21.427 GPS $GPRMC,000221.00,A,4437.511559,N,12402.054799,W,0.01,225.0,010825,,,D*79
NAV 2025/08/01 00:02:21.427 GPS $GPVTG,225.0,T,,M,0.01,N,0.01,K,D*0D
NAV 2025/08/01 00:02:21.530 GPS $GPGGA,000221.00,4437.511559,N,12402.054799,W,2,09,0.9,26.191,M,-23.247,M,5.0,0131*4F
NAV 2025/08/01 00:02:22.226 GPS $GPZDA,000222.00,01,08,2025,00,00*68
NAV 2025/08/01 00:02:22.426 GPS $GPRMC,000222.00,A,4437.511564,N,12402.054817,W,0.00,243.4,010825,,,D*78
NAV 2025/08/01 00:02:22.426 GPS $GPVTG,243.4,T,,M,0.00,N,0.01,K,D*08
NAV 2025/08/01 00:02:22.530 GPS $GPGGA,000222.00,4437.511564,N,12402.054817,W,2,09,0.9,26.224,M,-23.247,M,2.0,0131*41
NAV 2025/08/01 00:02:23.226 GPS $GPZDA,000223.00,01,08,2025,00,00*69
NAV 2025/08/01 00:02:23.426 GPS $GPRMC,000223.00,A,4437.511575,N,12402.054823,W,0.00,270.0,010825,,,D*7A
NAV 2025/08/01 00:02:23.427 GPS $GPVTG,270.0,T,,M,0.00,N,0.00,K,D*0D
NAV 2025/08/01 00:02:23.530 GPS $GPGGA,000223.00,4437.511575,N,12402.054823,W,2,09,0.9,26.221,M,-23.247,M,2.0,0131*42
NAV 2025/08/01 00:02:24.226 GPS $GPZDA,000224.00,01,08,2025,00,00*6E
NAV 2025/08/01 00:02:24.426 GPS $GPRMC,000224.00,A,4437.511585,N,12402.054815,W,0.01,211.0,010825,,,D*71
NAV 2025/08/01 00:02:24.426 GPS $GPVTG,211.0,T,,M,0.01,N,0.02,K,D*09
NAV 2025/08/01 00:02:24.530 GPS $GPGGA,000224.00,4437.511585,N,12402.054815,W,2,09,0.9,26.158,M,-23.247,M,2.0,0131*42
NAV 2025/08/01 00:02:25.226 GPS $GPZDA,000225.00,01,08,2025,00,00*6F
NAV 2025/08/01 00:02:25.426 GPS $GPRMC,000225.00,A,4437.511589,N,12402.054806,W,0.01,180.0,010825,,,D*75
NAV 2025/08/01 00:02:25.426 GPS $GPVTG,180.0,T,,M,0.01,N,0.02,K,D*02
NAV 2025/08/01 00:02:25.530 GPS $GPGGA,000225.00,4437.511589,N,12402.054806,W,2,09,0.9,26.114,M,-23.247,M,3.0,0131*44
NAV 2025/08/01 00:02:26.226 GPS $GPZDA,000226.00,01,08,2025,00,00*6C
NAV 2025/08/01 00:02:26.426 GPS $GPRMC,000226.00,A,4437.511589,N,12402.054802,W,0.01,180.0,010825,,,D*72
NAV 2025/08/01 00:02:26.426 GPS $GPVTG,180.0,T,,M,0.01,N,0.01,K,D*01
NAV 2025/08/01 00:02:26.530 GPS $GPGGA,000226.00,4437.511589,N,12402.054802,W,2,09,0.9,26.084,M,-23.247,M,4.0,0131*4C
NAV 2025/08/01 00:02:27.226 GPS $GPZDA,000227.00,01,08,2025,00,00*6D
NAV 2025/08/01 00:02:27.426 GPS $GPRMC,000227.00,A,4437.511591,N,12402.054799,W,0.00,180.0,010825,,,D*76
NAV 2025/08/01 00:02:27.426 GPS $GPVTG,180.0,T,,M,0.00,N,0.01,K,D*00
NAV 2025/08/01 00:02:27.530 GPS $GPGGA,000227.00,4437.511591,N,12402.054799,W,2,09,0.9,26.070,M,-23.247,M,5.0,0131*43
NAV 2025/08/01 00:02:28.226 GPS $GPZDA,000228.00,01,08,2025,00,00*62
NAV 2025/08/01 00:02:28.426 GPS $GPRMC,000228.00,A,4437.511582,N,12402.054787,W,0.01,213.7,010825,,,D*7B
NAV 2025/08/01 00:02:28.426 GPS $GPVTG,213.7,T,,M,0.01,N,0.01,K,D*0F
NAV 2025/08/01 00:02:28.530 GPS $GPGGA,000228.00,4437.511582,N,12402.054787,W,2,09,0.9,26.041,M,-23.247,M,2.0,0131*44
NAV 2025/08/01 00:02:29.227 GPS $GPZDA,000229.00,01,08,2025,00,00*63
NAV 2025/08/01 00:02:29.427 GPS $GPRMC,000229.00,A,4437.511570,N,12402.054785,W,0.02,12.5,010825,,,D*47
NAV 2025/08/01 00:02:29.427 GPS $GPVTG,12.5,T,,M,0.02,N,0.03,K,D*3F
NAV 2025/08/01 00:02:29.526 GPS $GPGGA,000229.00,4437.511570,N,12402.054785,W,2,09,0.9,26.035,M,-23.247,M,2.0,0131*49
NAV 2025/08/01 00:02:30.229 GPS $GPZDA,000230.00,01,08,2025,00,00*6B
NAV 2025/08/01 00:02:30.429 GPS $GPRMC,000230.00,A,4437.511553,N,12402.054798,W,0.00,243.4,010825,,,D*77
NAV 2025/08/01 00:02:30.429 GPS $GPVTG,243.4,T,,M,0.00,N,0.01,K,D*08
NAV 2025/08/01 00:02:30.533 GPS $GPGGA,000230.00,4437.511553,N,12402.054798,W,2,09,0.9,26.098,M,-23.247,M,2.0,0131*4B
NAV 2025/08/01 00:02:31.227 GPS $GPZDA,000231.00,01,08,2025,00,00*6A
NAV 2025/08/01 00:02:31.427 GPS $GPRMC,000231.00,A,4437.511547,N,12402.054807,W,0.02,352.9,010825,,,D*74
NAV 2025/08/01 00:02:31.427 GPS $GPVTG,352.9,T,,M,0.02,N,0.03,K,D*04
NAV 2025/08/01 00:02:31.530 GPS $GPGGA,000231.00,4437.511547,N,12402.054807,W,2,09,0.9,26.134,M,-23.247,M,3.0,0131*40
NAV 2025/08/01 00:02:32.227 GPS $GPZDA,000232.00,01,08,2025,00,00*69
NAV 2025/08/01 00:02:32.427 GPS $GPRMC,000232.00,A,4437.511546,N,12402.054814,W,0.01,296.6,010825,,,D*71
NAV 2025/08/01 00:02:32.427 GPS $GPVTG,296.6,T,,M,0.01,N,0.02,K,D*00
NAV 2025/08/01 00:02:32.531 GPS $GPGGA,000232.00,4437.511546,N,12402.054814,W,2,09,0.9,26.159,M,-23.247,M,4.0,0131*4C
NAV 2025/08/01 00:02:33.227 GPS $GPZDA,000233.00,01,08,2025,00,00*68
NAV 2025/08/01 00:02:33.427 GPS $GPRMC,000233.00,A,4437.511499,N,12402.054838,W,0.01,323.1,010825,,,D*75
NAV 2025/08/01 00:02:33.427 GPS $GPVTG,323.1,T,,M,0.01,N,0.02,K,D*08
NAV 2025/08/01 00:02:33.530 GPS $GPGGA,000233.00,4437.511499,N,12402.054838,W,2,08,1.0,26.137,M,-23.247,M,5.0,0131*40
NAV 2025/08/01 00:02:34.227 GPS $GPZDA,000234.00,01,08,2025,00,00*6F
NAV 2025/08/01 00:02:34.427 GPS $GPRMC,000234.00,A,4437.511482,N,12402.054864,W,0.00,333.4,010825,,,D*74
NAV 2025/08/01 00:02:34.427 GPS $GPVTG,333.4,T,,M,0.00,N,0.01,K,D*0E
NAV 2025/08/01 00:02:34.530 GPS $GPGGA,000234.00,4437.511482,N,12402.054864,W,2,09,0.9,26.154,M,-23.247,M,2.0,0131*4F
NAV 2025/08/01 00:02:35.227 GPS $GPZDA,000235.00,01,08,2025,00,00*6E
NAV 2025/08/01 00:02:35.427 GPS $GPRMC,000235.00,A,4437.511478,N,12402.054879,W,0.01,315.0,010825,,,D*7D
NAV 2025/08/01 00:02:35.427 GPS $GPVTG,315.0,T,,M,0.01,N,0.01,K,D*0F
NAV 2025/08/01 00:02:35.530 GPS $GPGGA,000235.00,4437.511478,N,12402.054879,W,2,09,0.9,26.148,M,-23.247,M,2.0,0131*4A
NAV 2025/08/01 00:02:36.228 GPS $GPZDA,000236.00,01,08,2025,00,00*6D
NAV 2025/08/01 00:02:36.428 GPS $GPRMC,000236.00,A,4437.511470,N,12402.054883,W,0.01,270.0,010825,,,D*71
NAV 2025/08/01 00:02:36.428 GPS $GPVTG,270.0,T,,M,0.01,N,0.02,K,D*0E
NAV 2025/08/01 00:02:36.531 GPS $GPGGA,000236.00,4437.511470,N,12402.054883,W,2,09,0.9,26.081,M,-23.247,M,2.0,0131*40
NAV 2025/08/01 00:02:37.232 GPS $GPZDA,000237.00,01,08,2025,00,00*6C
NAV 2025/08/01 00:02:37.432 GPS $GPRMC,000237.00,A,4437.511458,N,12402.054889,W,0.01,251.6,010825,,,D*75
NAV 2025/08/01 00:02:37.432 GPS $GPVTG,251.6,T,,M,0.01,N,0.02,K,D*0B
NAV 2025/08/01 00:02:37.535 GPS $GPGGA,000237.00,4437.511458,N,12402.054889,W,2,08,1.0,26.040,M,-23.247,M,3.0,0131*44
NAV 2025/08/01 00:02:38.227 GPS $GPZDA,000238.00,01,08,2025,00,00*63
NAV 2025/08/01 00:02:38.427 GPS $GPRMC,000238.00,A,4437.511453,N,12402.054896,W,0.03,228.0,010825,,,D*75
NAV 2025/08/01 00:02:38.427 GPS $GPVTG,228.0,T,,M,0.03,N,0.05,K,D*06
NAV 2025/08/01 00:02:38.531 GPS $GPGGA,000238.00,4437.511453,N,12402.054896,W,2,09,0.9,26.024,M,-23.247,M,4.0,0131*42
NAV 2025/08/01 00:02:39.231 GPS $GPZDA,000239.00,01,08,2025,00,00*62
NAV 2025/08/01 00:02:39.431 GPS $GPRMC,000239.00,A,4437.511455,N,12402.054898,W,0.01,270.0,010825,,,D*73
NAV 2025/08/01 00:02:39.432 GPS $GPVTG,270.0,T,,M,0.01,N,0.02,K,D*0E
NAV 2025/08/01 00:02:39.535 GPS $GPGGA,000239.00,4437.511455,N,12402.054898,W,2,09,0.9,26.014,M,-23.247,M,5.0,0131*49
NAV 2025/08/01 00:02:40.228 GPS $GPZDA,000240.00,01,08,2025,00,00*6C
NAV 2025/08/01 00:02:40.428 GPS $GPRMC,000240.00,A,4437.511432,N,12402.054895,W,0.03,213.7,010825,,,D*71
NAV 2025/08/01 00:02:40.428 GPS $GPVTG,213.7,T,,M,0.03,N,0.05,K,D*09
NAV 2025/08/01 00:02:40.532 GPS $GPGGA,000240.00,4437.511432,N,12402.054895,W,2,09,0.9,25.972,M,-23.247,M,2.0,0131*46
NAV 2025/08/01 00:02:41.228 GPS $GPZDA,000241.00,01,08,2025,00,00*6D
NAV 2025/08/01 00:02:41.428 GPS $GPRMC,000241.00,A,4437.511408,N,12402.054898,W,0.02,212.0,010825,,,D*73
NAV 2025/08/01 00:02:41.428 GPS $GPVTG,212.0,T,,M,0.02,N,0.03,K,D*08
NAV 2025/08/01 00:02:41.532 GPS $GPGGA,000241.00,4437.511408,N,12402.054898,W,2,09,0.9,25.968,M,-23.247,M,2.0,0131*48
NAV 2025/08/01 00:02:42.228 GPS $GPZDA,000242.00,01,08,2025,00,00*6E
NAV 2025/08/01 00:02:42.428 GPS $GPRMC,000242.00,A,4437.511390,N,12402.054902,W,0.02,215.5,010825,,,D*76
NAV 2025/08/01 00:02:42.428 GPS $GPVTG,215.5,T,,M,0.02,N,0.03,K,D*0A
NAV 2025/08/01 00:02:42.532 GPS $GPGGA,000242.00,4437.511390,N,12402.054902,W,2,09,0.9,26.012,M,-23.247,M,2.0,0131*48
NAV 2025/08/01 00:02:43.227 GPS $GPZDA,000243.00,01,08,2025,00,00*6F
NAV 2025/08/01 00:02:43.427 GPS $GPRMC,000243.00,A,4437.511378,N,12402.054904,W,0.02,194.0,010825,,,D*78
NAV 2025/08/01 00:02:43.427 GPS $GPVTG,194.0,T,,M,0.02,N,0.03,K,D*05
NAV 2025/08/01 00:02:43.531 GPS $GPGGA,000243.00,4437.511378,N,12402.054904,W,2,09,0.9,26.037,M,-23.247,M,3.0,0131*4F
NAV 2025/08/01 00:02:44.227 GPS $GPZDA,000244.00,01,08,2025,00,00*68
NAV 2025/08/01 00:02:44.427 GPS $GPRMC,000244.00,A,4437.511375,N,12402.054904,W,0.00,90.0,010825,,,D*45
NAV 2025/08/01 00:02:44.427 GPS $GPVTG,90.0,T,,M,0.00,N,0.00,K,D*31
