NAV 2025/08/01 00:00:00.032726 GPS $GPGGA,000119.00,4437.511533,N,12402.054774,W,2,09,0.9,26.211,M,-23.247,M,3.0,0131*45
NAV 2025/08/01 00:00:00.624701 GPS $GPZDA,000120.00,01,08,2025,00,00*69
NAV 2025/08/01 00:00:00.784654 GPS $GPRMC,000120.00,A,4437.511525,N,12402.054780,W,0.01,56.3,010825,,,D*4D
NAV 2025/08/01 00:00:00.848751 GPS $GPVTG,56.3,T,,M,0.01,N,0.01,K,D*38
NAV 2025/08/01 00:00:01.040650 GPS $GPGGA,000120.00,4437.511525,N,12402.054780,W,2,09,0.9,26.227,M,-23.247,M,4.0,0131*41
NAV 2025/08/01 00:00:01.632633 GPS $GPZDA,000121.00,01,08,2025,00,00*68
NAV 2025/08/01 00:00:01.776663 GPS $GPRMC,000121.00,A,4437.511518,N,12402.054783,W,0.01,45.0,010825,,,D*40
NAV 2025/08/01 00:00:01.856663 GPS $GPVTG,45.0,T,,M,0.01,N,0.02,K,D*3A
NAV 2025/08/01 00:00:02.032663 GPS $GPGGA,000121.00,4437.511518,N,12402.054783,W,2,09,0.9,26.234,M,-23.247,M,5.0,0131*4E
NAV 2025/08/01 00:00:02.624657 GPS $GPZDA,000122.00,01,08,2025,00,00*6B
NAV 2025/08/01 00:00:02.784600 GPS $GPRMC,000122.00,A,4437.511524,N,12402.054794,W,0.00,26.6,010825,,,D*48
NAV 2025/08/01 00:00:02.848702 GPS $GPVTG,26.6,T,,M,0.00,N,0.01,K,D*3B
NAV 2025/08/01 00:00:03.040601 GPS $GPGGA,000122.00,4437.511524,N,12402.054794,W,2,09,0.9,26.254,M,-23.247,M,2.0,0131*45
NAV 2025/08/01 00:00:03.632586 GPS $GPZDA,000123.00,01,08,2025,00,00*6A
NAV 2025/08/01 00:00:03.776627 GPS $GPRMC,000123.00,A,4437.511545,N,12402.054786,W,0.00,90.0,010825,,,D*46
NAV 2025/08/01 00:00:03.856617 GPS $GPVTG,90.0,T,,M,0.00,N,0.00,K,D*31
NAV 2025/08/01 00:00:04.032635 GPS $GPGGA,000123.00,4437.511545,N,12402.054786,W,2,09,0.9,26.267,M,-23.247,M,2.0,0131*40
NAV 2025/08/01 00:00:04.624617 GPS $GPZDA,000124.00,01,08,2025,00,00*6D
NAV 2025/08/01 00:00:04.784541 GPS $GPRMC,000124.00,A,4437.511563,N,12402.054765,W,0.01,33.7,010825,,,D*47
NAV 2025/08/01 00:00:04.848652 GPS $GPVTG,33.7,T,,M,0.01,N,0.01,K,D*3F
NAV 2025/08/01 00:00:05.040551 GPS $GPGGA,000124.00,4437.511563,N,12402.054765,W,2,09,0.9,26.208,M,-23.247,M,2.0,0131*47
NAV 2025/08/01 00:00:05.632541 GPS $GPZDA,000125.00,01,08,2025,00,00*6C
NAV 2025/08/01 00:00:05.776551 GPS $GPRMC,000125.00,A,4437.511573,N,12402.054753,W,0.01,0.0,010825,,,D*75
NAV 2025/08/01 00:00:05.856545 GPS $GPVTG,0.0,T,,M,0.01,N,0.01,K,D*08
NAV 2025/08/01 00:00:06.032564 GPS $GPGGA,000125.00,4437.511573,N,12402.054753,W,2,09,0.9,26.170,M,-23.247,M,3.0,0131*4F
NAV 2025/08/01 00:00:06.624546 GPS $GPZDA,000126.00,01,08,2025,00,00*6F
NAV 2025/08/01 00:00:06.784502 GPS $GPRMC,000126.00,A,4437.511580,N,12402.054747,W,0.01,284.0,010825,,,D*71
NAV 2025/08/01 00:00:06.864506 GPS $GPVTG,284.0,T,,M,0.01,N,0.01,K,D*06
NAV 2025/08/01 00:00:07.040516 GPS $GPGGA,000126.00,4437.511580,N,12402.054747,W,2,09,0.9,26.154,M,-23.247,M,4.0,0131*44
NAV 2025/08/01 00:00:07.632485 GPS $GPZDA,000127.00,01,08,2025,00,00*6E
NAV 2025/08/01 00:00:07.776508 GPS $GPRMC,000127.00,A,4437.511585,N,12402.054741,W,0.01,0.0,010825,,,D*7D
NAV 2025/08/01 00:00:07.856492 GPS $GPVTG,0.0,T,,M,0.01,N,0.02,K,D*0B
NAV 2025/08/01 00:00:08.032503 GPS $GPGGA,000127.00,4437.511585,N,12402.054741,W,2,09,0.9,26.142,M,-23.247,M,5.0,0131*40
NAV 2025/08/01 00:00:08.624492 GPS $GPZDA,000128.00,01,08,2025,00,00*61
NAV 2025/08/01 00:00:08.784480 GPS $GPRMC,000128.00,A,4437.511585,N,12402.054733,W,0.01,303.7,010825,,,D*70
NAV 2025/08/01 00:00:08.864487 GPS $GPVTG,303.7,T,,M,0.01,N,0.01,K,D*0F
NAV 2025/08/01 00:00:09.040487 GPS $GPGGA,000128.00,4437.511585,N,12402.054733,W,2,09,0.9,26.142,M,-23.247,M,2.0,0131*4D
NAV 2025/08/01 00:00:09.632459 GPS $GPZDA,000129.00,01,08,2025,00,00*60
NAV 2025/08/01 00:00:09.776498 GPS $GPRMC,000129.00,A,4437.511570,N,12402.054740,W,0.00,270.0,010825,,,D*7C
NAV 2025/08/01 00:00:09.856488 GPS $GPVTG,270.0,T,,M,0.00,N,0.01,K,D*0C
NAV 2025/08/01 00:00:10.048422 GPS $GPGGA,000129.00,4437.511570,N,12402.054740,W,2,09,0.9,26.137,M,-23.247,M,2.0,0131*40
NAV 2025/08/01 00:00:10.624489 GPS $GPZDA,000130.00,01,08,2025,00,00*68
NAV 2025/08/01 00:00:10.784441 GPS $GPRMC,000130.00,A,4437.511551,N,12402.054763,W,0.02,225.0,010825,,,D*74
NAV 2025/08/01 00:00:10.864428 GPS $GPVTG,225.0,T,,M,0.02,N,0.04,K,D*0B
NAV 2025/08/01 00:00:11.040452 GPS $GPGGA,000130.00,4437.511551,N,12402.054763,W,2,09,0.9,26.199,M,-23.247,M,2.0,0131*4E
NAV 2025/08/01 00:00:11.632385 GPS $GPZDA,000131.00,01,08,2025,00,00*69
NAV 2025/08/01 00:00:11.776440 GPS $GPRMC,000131.00,A,4437.511546,N,12402.054777,W,0.01,323.1,010825,,,D*73
NAV 2025/08/01 00:00:11.856436 GPS $GPVTG,323.1,T,,M,0.01,N,0.02,K,D*08
NAV 2025/08/01 00:00:12.032445 GPS $GPGGA,000131.00,4437.511546,N,12402.054777,W,2,09,0.9,26.231,M,-23.247,M,3.0,0131*4C
NAV 2025/08/01 00:00:12.624412 GPS $GPZDA,000132.00,01,08,2025,00,00*6A
NAV 2025/08/01 00:00:12.784370 GPS $GPRMC,000132.00,A,4437.511537,N,12402.054788,W,0.02,215.5,010825,,,D*75
NAV 2025/08/01 00:00:12.864378 GPS $GPVTG,215.5,T,,M,0.02,N,0.03,K,D*0A
NAV 2025/08/01 00:00:13.040388 GPS $GPGGA,000132.00,4437.511537,N,12402.054788,W,2,09,0.9,26.246,M,-23.247,M,4.0,0131*4E
NAV 2025/08/01 00:00:13.632327 GPS $GPZDA,000133.00,01,08,2025,00,00*6B
NAV 2025/08/01 00:00:13.776384 GPS $GPRMC,000133.00,A,4437.511534,N,12402.054795,W,0.01,233.1,010825,,,D*78
NAV 2025/08/01 00:00:13.856387 GPS $GPVTG,233.1,T,,M,0.01,N,0.02,K,D*08
NAV 2025/08/01 00:00:14.032395 GPS $GPGGA,000133.00,4437.511534,N,12402.054795,W,2,09,0.9,26.250,M,-23.247,M,5.0,0131*46
NAV 2025/08/01 00:00:14.624319 GPS $GPZDA,000134.00,01,08,2025,00,00*6C
NAV 2025/08/01 00:00:14.784318 GPS $GPRMC,000134.00,A,4437.511532,N,12402.054811,W,0.01,225.0,010825,,,D*7C
NAV 2025/08/01 00:00:14.864316 GPS $GPVTG,225.0,T,,M,0.01,N,0.02,K,D*0E
NAV 2025/08/01 00:00:15.040348 GPS $GPGGA,000134.00,4437.511532,N,12402.054811,W,2,09,0.9,26.253,M,-23.247,M,2.0,0131*40
NAV 2025/08/01 00:00:15.632288 GPS $GPZDA,000135.00,01,08,2025,00,00*6D
NAV 2025/08/01 00:00:15.776314 GPS $GPRMC,000135.00,A,4437.511553,N,12402.054806,W,0.01,0.0,010825,,,D*79
NAV 2025/08/01 00:00:15.856292 GPS $GPVTG,0.0,T,,M,0.01,N,0.01,K,D*08
NAV 2025/08/01 00:00:16.032311 GPS $GPGGA,000135.00,4437.511553,N,12402.054806,W,2,09,0.9,26.262,M,-23.247,M,2.0,0131*42
NAV 2025/08/01 00:00:16.624308 GPS $GPZDA,000136.00,01,08,2025,00,00*6E
NAV 2025/08/01 00:00:16.784258 GPS $GPRMC,000136.00,A,4437.511565,N,12402.054791,W,0.01,239.0,010825,,,D*76
NAV 2025/08/01 00:00:16.864265 GPS $GPVTG,239.0,T,,M,0.01,N,0.02,K,D*03
NAV 2025/08/01 00:00:17.040302 GPS $GPGGA,000136.00,4437.511565,N,12402.054791,W,2,09,0.9,26.206,M,-23.247,M,2.0,0131*47
NAV 2025/08/01 00:00:17.632250 GPS $GPZDA,000137.00,01,08,2025,00,00*6F
NAV 2025/08/01 00:00:17.776312 GPS $GPRMC,000137.00,A,4437.511572,N,12402.054783,W,0.01,348.7,010825,,,D*72
NAV 2025/08/01 00:00:17.856316 GPS $GPVTG,348.7,T,,M,0.01,N,0.02,K,D*03
NAV 2025/08/01 00:00:18.048233 GPS $GPGGA,000137.00,4437.511572,N,12402.054783,W,2,09,0.9,26.160,M,-23.247,M,3.0,0131*41
NAV 2025/08/01 00:00:18.624281 GPS $GPZDA,000138.00,01,08,2025,00,00*60
NAV 2025/08/01 00:00:18.784225 GPS $GPRMC,000138.00,A,4437.511577,N,12402.054779,W,0.01,341.6,010825,,,D*75
NAV 2025/08/01 00:00:18.864230 GPS $GPVTG,341.6,T,,M,0.01,N,0.01,K,D*08
NAV 2025/08/01 00:00:19.040243 GPS $GPGGA,000138.00,4437.511577,N,12402.054779,W,2,09,0.9,26.133,M,-23.247,M,4.0,0131*4F
NAV 2025/08/01 00:00:19.632186 GPS $GPZDA,000139.00,01,08,2025,00,00*61
NAV 2025/08/01 00:00:19.776248 GPS $GPRMC,000139.00,A,4437.511581,N,12402.054777,W,0.01,270.0,010825,,,D*76
NAV 2025/08/01 00:00:19.856249 GPS $GPVTG,270.0,T,,M,0.01,N,0.01,K,D*0D
NAV 2025/08/01 00:00:20.048179 GPS $GPGGA,000139.00,4437.511581,N,12402.054777,W,2,09,0.9,26.110,M,-23.247,M,5.0,0131*49
NAV 2025/08/01 00:00:20.624209 GPS $GPZDA,000140.00,01,08,2025,00,00*6F
NAV 2025/08/01 00:00:20.768242 GPS $GPRMC,000140.00,A,4437.511584,N,12402.054767,W,0.01,0.0,010825,,,D*79
NAV 2025/08/01 00:00:20.848247 GPS $GPVTG,0.0,T,,M,0.01,N,0.01,K,D*08
NAV 2025/08/01 00:00:21.024228 GPS $GPGGA,000140.00,4437.511584,N,12402.054767,W,2,09,0.9,26.093,M,-23.247,M,2.0,0131*4E
NAV 2025/08/01 00:00:21.632164 GPS $GPZDA,000141.00,01,08,2025,00,00*6E
NAV 2025/08/01 00:00:21.776177 GPS $GPRMC,000141.00,A,4437.511579,N,12402.054767,W,0.01,8.1,010825,,,D*73
NAV 2025/08/01 00:00:21.856151 GPS $GPVTG,8.1,T,,M,0.01,N,0.02,K,D*02
NAV 2025/08/01 00:00:22.032168 GPS $GPGGA,000141.00,4437.511579,N,12402.054767,W,2,09,0.9,26.105,M,-23.247,M,2.0,0131*43
NAV 2025/08/01 00:00:22.624186 GPS $GPZDA,000142.00,01,08,2025,00,00*6D
NAV 2025/08/01 00:00:22.784142 GPS $GPRMC,000142.00,A,4437.511567,N,12402.054784,W,0.00,333.4,010825,,,D*7D
NAV 2025/08/01 00:00:22.864142 GPS $GPVTG,333.4,T,,M,0.00,N,0.01,K,D*0E
NAV 2025/08/01 00:00:23.040154 GPS $GPGGA,000142.00,4437.511567,N,12402.054784,W,2,09,0.9,26.170,M,-23.247,M,2.0,0131*40
NAV 2025/08/01 00:00:23.632095 GPS $GPZDA,000143.00,01,08,2025,00,00*6C
NAV 2025/08/01 00:00:23.776127 GPS $GPRMC,000143.00,A,4437.511561,N,12402.054791,W,0.00,26.6,010825,,,D*4B
NAV 2025/08/01 00:00:23.856123 GPS $GPVTG,26.6,T,,M,0.00,N,0.01,K,D*3B
NAV 2025/08/01 00:00:24.032140 GPS $GPGGA,000143.00,4437.511561,N,12402.054791,W,2,09,0.9,26.212,M,-23.247,M,3.0,0131*45
NAV 2025/08/01 00:00:24.624112 GPS $GPZDA,000144.00,01,08,2025,00,00*6B
NAV 2025/08/01 00:00:24.784067 GPS $GPRMC,000144.00,A,4437.511555,N,12402.054795,W,0.01,14.0,010825,,,D*49
NAV 2025/08/01 00:00:24.848167 GPS $GPVTG,14.0,T,,M,0.01,N,0.01,K,D*3D
NAV 2025/08/01 00:00:25.040077 GPS $GPGGA,000144.00,4437.511555,N,12402.054795,W,2,09,0.9,26.234,M,-23.247,M,4.0,0131*42
NAV 2025/08/01 00:00:25.632063 GPS $GPZDA,000145.00,01,08,2025,00,00*6A
NAV 2025/08/01 00:00:25.776092 GPS $GPRMC,000145.00,A,4437.511551,N,12402.054797,W,0.00,63.4,010825,,,D*4B
NAV 2025/08/01 00:00:25.856081 GPS $GPVTG,63.4,T,,M,0.00,N,0.01,K,D*38
NAV 2025/08/01 00:00:26.032095 GPS $GPGGA,000145.00,4437.511551,N,12402.054797,W,2,09,0.9,26.244,M,-23.247,M,5.0,0131*43
NAV 2025/08/01 00:00:26.624078 GPS $GPZDA,000146.00,01,08,2025,00,00*69
NAV 2025/08/01 00:00:26.784023 GPS $GPRMC,000146.00,A,4437.511550,N,12402.054807,W,0.00,90.0,010825,,,D*47
NAV 2025/08/01 00:00:26.848110 GPS $GPVTG,90.0,T,,M,0.00,N,0.01,K,D*30
NAV 2025/08/01 00:00:27.040037 GPS $GPGGA,000146.00,4437.511550,N,12402.054807,W,2,09,0.9,26.248,M,-23.247,M,2.0,0131*4C
NAV 2025/08/01 00:00:27.632023 GPS $GPZDA,000147.00,01,08,2025,00,00*68
NAV 2025/08/01 00:00:27.791992 GPS $GPRMC,000147.00,A,4437.511554,N,12402.054807,W,0.01,170.5,010825,,,D*79
NAV 2025/08/01 00:00:27.856070 GPS $GPVTG,170.5,T,,M,0.01,N,0.02,K,D*08
NAV 2025/08/01 00:00:28.048006 GPS $GPGGA,000147.00,4437.511554,N,12402.054807,W,2,09,0.9,26.229,M,-23.247,M,2.0,0131*4E
NAV 2025/08/01 00:00:28.624040 GPS $GPZDA,000148.00,01,08,2025,00,00*67
NAV 2025/08/01 00:00:28.783996 GPS $GPRMC,000148.00,A,4437.511560,N,12402.054793,W,0.00,180.0,010825,,,D*78
NAV 2025/08/01 00:00:28.863992 GPS $GPVTG,180.0,T,,M,0.00,N,0.00,K,D*01
NAV 2025/08/01 00:00:29.040003 GPS $GPGGA,000148.00,4437.511560,N,12402.054793,W,2,09,0.9,26.151,M,-23.247,M,2.0,0131*48
NAV 2025/08/01 00:00:29.631947 GPS $GPZDA,000149.00,01,08,2025,00,00*66
NAV 2025/08/01 00:00:29.775992 GPS $GPRMC,000149.00,A,4437.511565,N,12402.054784,W,0.00,153.4,010825,,,D*70
NAV 2025/08/01 00:00:29.856002 GPS $GPVTG,153.4,T,,M,0.00,N,0.01,K,D*0A
NAV 2025/08/01 00:00:30.032011 GPS $GPGGA,000149.00,4437.511565,N,12402.054784,W,2,09,0.9,26.111,M,-23.247,M,3.0,0131*4F
NAV 2025/08/01 00:00:30.623979 GPS $GPZDA,000150.00,01,08,2025,00,00*6E
NAV 2025/08/01 00:00:30.783928 GPS $GPRMC,000150.00,A,4437.511568,N,12402.054778,W,0.00,90.0,010825,,,D*4C
NAV 2025/08/01 00:00:30.848017 GPS $GPVTG,90.0,T,,M,0.00,N,0.00,K,D*31
NAV 2025/08/01 00:00:31.039920 GPS $GPGGA,000150.00,4437.511568,N,12402.054778,W,2,09,0.9,26.083,M,-23.247,M,4.0,0131*44
NAV 2025/08/01 00:00:31.631901 GPS $GPZDA,000151.00,01,08,2025,00,00*6F
NAV 2025/08/01 00:00:31.775953 GPS $GPRMC,000151.00,A,4437.511573,N,12402.054772,W,0.01,135.0,010825,,,D*72
NAV 2025/08/01 00:00:31.855962 GPS $GPVTG,135.0,T,,M,0.01,N,0.01,K,D*0F
NAV 2025/08/01 00:00:32.031973 GPS $GPGGA,000151.00,4437.511573,N,12402.054772,W,2,09,0.9,26.071,M,-23.247,M,5.0,0131*49
NAV 2025/08/01 00:00:32.623922 GPS $GPZDA,000152.00,01,08,2025,00,00*6C
NAV 2025/08/01 00:00:32.783886 GPS $GPRMC,000152.00,A,4437.511571,N,12402.054762,W,0.01,166.0,010825,,,D*74
NAV 2025/08/01 00:00:32.863892 GPS $GPVTG,166.0,T,,M,0.01,N,0.01,K,D*09
NAV 2025/08/01 00:00:33.039901 GPS $GPGGA,000152.00,4437.511571,N,12402.054762,W,2,09,0.9,26.063,M,-23.247,M,2.0,0131*4D
NAV 2025/08/01 00:00:33.631857 GPS $GPZDA,000153.00,01,08,2025,00,00*6D
NAV 2025/08/01 00:00:33.775908 GPS $GPRMC,000153.00,A,4437.511561,N,12402.054761,W,0.01,108.4,010825,,,D*7B
NAV 2025/08/01 00:00:33.855897 GPS $GPVTG,108.4,T,,M,0.01,N,0.01,K,D*05
NAV 2025/08/01 00:00:34.031914 GPS $GPGGA,000153.00,4437.511561,N,12402.054761,W,2,09,0.9,26.074,M,-23.247,M,2.0,0131*48
NAV 2025/08/01 00:00:34.623872 GPS $GPZDA,000154.00,01,08,2025,00,00*6A
NAV 2025/08/01 00:00:34.783825 GPS $GPRMC,000154.00,A,4437.511555,N,12402.054771,W,0.01,38.7,010825,,,D*4B
NAV 2025/08/01 00:00:34.847916 GPS $GPVTG,38.7,T,,M,0.01,N,0.02,K,D*37
NAV 2025/08/01 00:00:35.039830 GPS $GPGGA,000154.00,4437.511555,N,12402.054771,W,2,09,0.9,26.147,M,-23.247,M,2.0,0131*48
NAV 2025/08/01 00:00:35.631800 GPS $GPZDA,000155.00,01,08,2025,00,00*6B
NAV 2025/08/01 00:00:35.775852 GPS $GPRMC,000155.00,A,4437.511549,N,12402.054779,W,0.00,116.6,010825,,,D*72
NAV 2025/08/01 00:00:35.855882 GPS $GPVTG,116.6,T,,M,0.00,N,0.01,K,D*09
NAV 2025/08/01 00:00:36.047807 GPS $GPGGA,000155.00,4437.511549,N,12402.054779,W,2,09,0.9,26.195,M,-23.247,M,3.0,0131*42
NAV 2025/08/01 00:00:36.623832 GPS $GPZDA,000156.00,01,08,2025,00,00*68
NAV 2025/08/01 00:00:36.783774 GPS $GPRMC,000156.00,A,4437.511548,N,12402.054782,W,0.01,108.4,010825,,,D*78
NAV 2025/08/01 00:00:36.863789 GPS $GPVTG,108.4,T,,M,0.01,N,0.01,K,D*05
NAV 2025/08/01 00:00:37.039817 GPS $GPGGA,000156.00,4437.511548,N,12402.054782,W,2,09,0.9,26.221,M,-23.247,M,4.0,0131*4F
NAV 2025/08/01 00:00:37.631761 GPS $GPZDA,000157.00,01,08,2025,00,00*69
NAV 2025/08/01 00:00:37.775824 GPS $GPRMC,000157.00,A,4437.511546,N,12402.054783,W,0.01,90.0,010825,,,D*42
NAV 2025/08/01 00:00:37.855801 GPS $GPVTG,90.0,T,,M,0.01,N,0.01,K,D*31
NAV 2025/08/01 00:00:38.031812 GPS $GPGGA,000157.00,4437.511546,N,12402.054783,W,2,09,0.9,26.237,M,-23.247,M,5.0,0131*47
NAV 2025/08/01 00:00:38.623773 GPS $GPZDA,000158.00,01,08,2025,00,00*66
NAV 2025/08/01 00:00:38.783734 GPS $GPRMC,000158.00,A,4437.511548,N,12402.054789,W,0.01,90.0,010825,,,D*49
NAV 2025/08/01 00:00:38.847826 GPS $GPVTG,90.0,T,,M,0.01,N,0.02,K,D*32
NAV 2025/08/01 00:00:39.039749 GPS $GPGGA,000158.00,4437.511548,N,12402.054789,W,2,09,0.9,26.247,M,-23.247,M,2.0,0131*4C
NAV 2025/08/01 00:00:39.631721 GPS $GPZDA,000159.00,01,08,2025,00,00*67
NAV 2025/08/01 00:00:39.775770 GPS $GPRMC,000159.00,A,4437.511561,N,12402.054787,W,0.01,146.3,010825,,,D*74
NAV 2025/08/01 00:00:39.855768 GPS $GPVTG,146.3,T,,M,0.01,N,0.01,K,D*08
NAV 2025/08/01 00:00:40.047694 GPS $GPGGA,000159.00,4437.511561,N,12402.054787,W,2,09,0.9,26.237,M,-23.247,M,2.0,0131*4F
NAV 2025/08/01 00:00:40.623735 GPS $GPZDA,000200.00,01,08,2025,00,00*68
NAV 2025/08/01 00:00:40.783671 GPS $GPRMC,000200.00,A,4437.511571,N,12402.054771,W,0.01,90.0,010825,,,D*4A
NAV 2025/08/01 00:00:40.847778 GPS $GPVTG,90.0,T,,M,0.01,N,0.01,K,D*31
NAV 2025/08/01 00:00:41.039690 GPS $GPGGA,000200.00,4437.511571,N,12402.054771,W,2,09,0.9,26.164,M,-23.247,M,2.0,0131*4D
NAV 2025/08/01 00:00:41.631693 GPS $GPZDA,000201.00,01,08,2025,00,00*69
NAV 2025/08/01 00:00:41.775729 GPS $GPRMC,000201.00,A,4437.511579,N,12402.054760,W,0.00,153.4,010825,,,D*78
NAV 2025/08/01 00:00:41.855737 GPS $GPVTG,153.4,T,,M,0.00,N,0.01,K,D*0A
NAV 2025/08/01 00:00:42.047661 GPS $GPGGA,000201.00,4437.511579,N,12402.054760,W,2,09,0.9,26.121,M,-23.247,M,3.0,0131*44
NAV 2025/08/01 00:00:42.623713 GPS $GPZDA,000202.00,01,08,2025,00,00*6A
NAV 2025/08/01 00:00:42.783652 GPS $GPRMC,000202.00,A,4437.511589,N,12402.054751,W,0.01,18.4,010825,,,D*49
NAV 2025/08/01 00:00:42.863640 GPS $GPVTG,18.4,T,,M,0.01,N,0.01,K,D*35
NAV 2025/08/01 00:00:43.039658 GPS $GPGGA,000202.00,4437.511589,N,12402.054751,W,2,09,0.9,26.097,M,-23.247,M,4.0,0131*41
NAV 2025/08/01 00:00:43.631617 GPS $GPZDA,000203.00,01,08,2025,00,00*6B
NAV 2025/08/01 00:00:43.775656 GPS $GPRMC,000203.00,A,4437.511593,N,12402.054744,W,0.01,108.4,010825,,,D*77
NAV 2025/08/01 00:00:43.855663 GPS $GPVTG,108.4,T,,M,0.01,N,0.01,K,D*05
NAV 2025/08/01 00:00:44.047591 GPS $GPGGA,000203.00,4437.511593,N,12402.054744,W,2,09,0.9,26.080,M,-23.247,M,5.0,0131*48
NAV 2025/08/01 00:00:44.623642 GPS $GPZDA,000204.00,01,08,2025,00,00*6C
NAV 2025/08/01 00:00:44.783596 GPS $GPRMC,000204.00,A,4437.511594,N,12402.054731,W,0.01,71.6,010825,,,D*48
NAV 2025/08/01 00:00:44.847686 GPS $GPVTG,71.6,T,,M,0.01,N,0.01,K,D*38
NAV 2025/08/01 00:00:45.039637 GPS $GPGGA,000204.00,4437.511594,N,12402.054731,W,2,09,0.9,26.076,M,-23.247,M,2.0,0131*44
NAV 2025/08/01 00:00:45.631579 GPS $GPZDA,000205.00,01,08,2025,00,00*6D
NAV 2025/08/01 00:00:45.775613 GPS $GPRMC,000205.00,A,4437.511586,N,12402.054728,W,0.01,45.0,010825,,,D*43
NAV 2025/08/01 00:00:45.855605 GPS $GPVTG,45.0,T,,M,0.01,N,0.01,K,D*39
NAV 2025/08/01 00:00:46.031617 GPS $GPGGA,000205.00,4437.511586,N,12402.054728,W,2,09,0.9,26.086,M,-23.247,M,2.0,0131*41
NAV 2025/08/01 00:00:46.623609 GPS $GPZDA,000206.00,01,08,2025,00,00*6E
NAV 2025/08/01 00:00:46.783589 GPS $GPRMC,000206.00,A,4437.511578,N,12402.054738,W,0.01,161.6,010825,,,D*71
NAV 2025/08/01 00:00:46.863598 GPS $GPVTG,161.6,T,,M,0.01,N,0.01,K,D*08
NAV 2025/08/01 00:00:47.039604 GPS $GPGGA,000206.00,4437.511578,N,12402.054738,W,2,09,0.9,26.162,M,-23.247,M,2.0,0131*49
NAV 2025/08/01 00:00:47.631533 GPS $GPZDA,000207.00,01,08,2025,00,00*6F
NAV 2025/08/01 00:00:47.775577 GPS $GPRMC,000207.00,A,4437.511571,N,12402.054746,W,0.00,153.4,010825,,,D*72
NAV 2025/08/01 00:00:47.855592 GPS $GPVTG,153.4,T,,M,0.00,N,0.01,K,D*0A
NAV 2025/08/01 00:00:48.047514 GPS $GPGGA,000207.00,4437.511571,N,12402.054746,W,2,09,0.9,26.205,M,-23.247,M,3.0,0131*4B
NAV 2025/08/01 00:00:48.623577 GPS $GPZDA,000208.00,01,08,2025,00,00*60
NAV 2025/08/01 00:00:48.783508 GPS $GPRMC,000208.00,A,4437.511570,N,12402.054752,W,0.01,11.3,010825,,,D*48
NAV 2025/08/01 00:00:48.863500 GPS $GPVTG,11.3,T,,M,0.01,N,0.02,K,D*38
NAV 2025/08/01 00:00:49.039508 GPS $GPGGA,000208.00,4437.511570,N,12402.054752,W,2,09,0.9,26.238,M,-23.247,M,4.0,0131*49
NAV 2025/08/01 00:00:49.631473 GPS $GPZDA,000209.00,01,08,2025,00,00*61
NAV 2025/08/01 00:00:49.775536 GPS $GPRMC,000209.00,A,4437.511568,N,12402.054757,W,0.00,270.0,010825,,,D*72
NAV 2025/08/01 00:00:49.855535 GPS $GPVTG,270.0,T,,M,0.00,N,0.01,K,D*0C
NAV 2025/08/01 00:00:50.047455 GPS $GPGGA,000209.00,4437.511568,N,12402.054757,W,2,09,0.9,26.258,M,-23.247,M,5.0,0131*43
NAV 2025/08/01 00:00:50.623506 GPS $GPZDA,000210.00,01,08,2025,00,00*69
NAV 2025/08/01 00:00:50.783429 GPS $GPRMC,000210.00,A,4437.511575,N,12402.054767,W,0.01,0.0,010825,,,D*71
NAV 2025/08/01 00:00:50.847514 GPS $GPVTG,0.0,T,,M,0.01,N,0.02,K,D*0B
NAV 2025/08/01 00:00:51.039428 GPS $GPGGA,000210.00,4437.511575,N,12402.054767,W,2,09,0.9,26.273,M,-23.247,M,2.0,0131*4A
NAV 2025/08/01 00:00:51.631430 GPS $GPZDA,000211.00,01,08,2025,00,00*68
NAV 2025/08/01 00:00:51.775490 GPS $GPRMC,000211.00,A,4437.511587,N,12402.054769,W,0.01,194.0,010825,,,D*7F
NAV 2025/08/01 00:00:51.855482 GPS $GPVTG,194.0,T,,M,0.01,N,0.01,K,D*04
NAV 2025/08/01 00:00:52.047403 GPS $GPGGA,000211.00,4437.511587,N,12402.054769,W,2,09,0.9,26.260,M,-23.247,M,2.0,0131*4A
NAV 2025/08/01 00:00:52.623470 GPS $GPZDA,000212.00,01,08,2025,00,00*6B
NAV 2025/08/01 00:00:52.783420 GPS $GPRMC,000212.00,A,4437.511598,N,12402.054759,W,0.01,338.2,010825,,,D*77
NAV 2025/08/01 00:00:52.863420 GPS $GPVTG,338.2,T,,M,0.01,N,0.02,K,D*01
NAV 2025/08/01 00:00:53.039436 GPS $GPGGA,000212.00,4437.511598,N,12402.054759,W,2,09,0.9,26.189,M,-23.247,M,2.0,0131*40
NAV 2025/08/01 00:00:53.631389 GPS $GPZDA,000213.00,01,08,2025,00,00*6A
NAV 2025/08/01 00:00:53.775432 GPS $GPRMC,000213.00,A,4437.511603,N,12402.054754,W,0.01,270.0,010825,,,D*75
NAV 2025/08/01 00:00:53.855432 GPS $GPVTG,270.0,T,,M,0.01,N,0.01,K,D*0D
NAV 2025/08/01 00:00:54.047346 GPS $GPGGA,000213.00,4437.511603,N,12402.054754,W,2,09,0.9,26.142,M,-23.247,M,3.0,0131*4B
NAV 2025/08/01 00:00:54.623400 GPS $GPZDA,000214.00,01,08,2025,00,00*6D
NAV 2025/08/01 00:00:54.783367 GPS $GPRMC,000214.00,A,4437.511608,N,12402.054753,W,0.01,270.0,010825,,,D*7E
NAV 2025/08/01 00:00:54.863370 GPS $GPVTG,270.0,T,,M,0.01,N,0.02,K,D*0E
NAV 2025/08/01 00:00:55.039393 GPS $GPGGA,000214.00,4437.511608,N,12402.054753,W,2,09,0.9,26.113,M,-23.247,M,4.0,0131*43
NAV 2025/08/01 00:00:55.631346 GPS $GPZDA,000215.00,01,08,2025,00,00*6C
NAV 2025/08/01 00:00:55.775408 GPS $GPRMC,000215.00,A,4437.511614,N,12402.054753,W,0.01,303.7,010825,,,D*70
NAV 2025/08/01 00:00:55.855399 GPS $GPVTG,303.7,T,,M,0.01,N,0.01,K,D*0F
NAV 2025/08/01 00:00:56.047329 GPS $GPGGA,000215.00,4437.511614,N,12402.054753,W,2,09,0.9,26.089,M,-23.247,M,5.0,0131*4C
NAV 2025/08/01 00:00:56.623366 GPS $GPZDA,000216.00,01,08,2025,00,00*6F
NAV 2025/08/01 00:00:56.783320 GPS $GPRMC,000216.00,A,4437.511613,N,12402.054746,W,0.01,320.2,010825,,,D*74
NAV 2025/08/01 00:00:56.863313 GPS $GPVTG,320.2,T,,M,0.01,N,0.03,K,D*09
NAV 2025/08/01 00:00:57.039334 GPS $GPGGA,000216.00,4437.511613,N,12402.054746,W,2,09,0.9,26.073,M,-23.247,M,2.0,0131*4E
NAV 2025/08/01 00:00:57.631317 GPS $GPZDA,000217.00,01,08,2025,00,00*6E
NAV 2025/08/01 00:00:57.775344 GPS $GPRMC,000217.00,A,4437.511597,N,12402.054751,W,0.01,248.2,010825,,,D*73
NAV 2025/08/01 00:00:57.855332 GPS $GPVTG,248.2,T,,M,0.01,N,0.02,K,D*07
NAV 2025/08/01 00:00:58.047261 GPS $GPGGA,000217.00,4437.511597,N,12402.054751,W,2,09,0.9,26.064,M,-23.247,M,2.0,0131*40
NAV 2025/08/01 00:00:58.623317 GPS $GPZDA,000218.00,01,08,2025,00,00*61
NAV 2025/08/01 00:00:58.783265 GPS $GPRMC,000218.00,A,4437.511585,N,12402.054768,W,0.01,303.7,010825,,,D*7E
NAV 2025/08/01 00:00:58.863277 GPS $GPVTG,303.7,T,,M,0.01,N,0.01,K,D*0F
NAV 2025/08/01 00:00:59.039288 GPS $GPGGA,000218.00,4437.511585,N,12402.054768,W,2,09,0.9,26.119,M,-23.247,M,2.0,0131*4D
NAV 2025/08/01 00:00:59.631256 GPS $GPZDA,000219.00,01,08,2025,00,00*60
NAV 2025/08/01 00:00:59.775284 GPS $GPRMC,000219.00,A,4437.511574,N,12402.054781,W,0.01,315.0,010825,,,D*76
NAV 2025/08/01 00:00:59.855288 GPS $GPVTG,315.0,T,,M,0.01,N,0.01,K,D*0F
NAV 2025/08/01 00:01:00.047208 GPS $GPGGA,000219.00,4437.511574,N,12402.054781,W,2,09,0.9,26.152,M,-23.247,M,3.0,0131*4B
NAV 2025/08/01 00:01:00.623263 GPS $GPZDA,000220.00,01,08,2025,00,00*6A
NAV 2025/08/01 00:01:00.783225 GPS $GPRMC,000220.00,A,4437.511560,N,12402.054793,W,0.02,206.6,010825,,,D*7C
NAV 2025/08/01 00:01:00.863231 GPS $GPVTG,206.6,T,,M,0.02,N,0.03,K,D*0B
NAV 2025/08/01 00:01:01.039233 GPS $GPGGA,000220.00,4437.511560,N,12402.054793,W,2,09,0.9,26.172,M,-23.247,M,4.0,0131*42
NAV 2025/08/01 00:01:01.631191 GPS $GPZDA,000221.00,01,08,2025,00,00*6B
NAV 2025/08/01 00:01:01.775247 GPS $GPRMC,000221.00,A,4437.511559,N,12402.054799,W,0.01,225.0,010825,,,D*79
NAV 2025/08/01 00:01:01.855237 GPS $GPVTG,225.0,T,,M,0.01,N,0.01,K,D*0D
NAV 2025/08/01 00:01:02.047177 GPS $GPGGA,000221.00,4437.511559,N,12402.054799,W,2,09,0.9,26.191,M,-23.247,M,5.0,0131*4F
NAV 2025/08/01 00:01:02.623221 GPS $GPZDA,000222.00,01,08,2025,00,00*68
NAV 2025/08/01 00:01:02.783176 GPS $GPRMC,000222.00,A,4437.511564,N,12402.054817,W,0.00,243.4,010825,,,D*78
NAV 2025/08/01 00:01:02.863162 GPS $GPVTG,243.4,T,,M,0.00,N,0.01,K,D*08
NAV 2025/08/01 00:01:03.039181 GPS $GPGGA,000222.00,4437.511564,N,12402.054817,W,2,09,0.9,26.224,M,-23.247,M,2.0,0131*41
NAV 2025/08/01 00:01:03.631143 GPS $GPZDA,000223.00,01,08,2025,00,00*69
NAV 2025/08/01 00:01:03.775202 GPS $GPRMC,000223.00,A,4437.511575,N,12402.054823,W,0.00,270.0,010825,,,D*7A
NAV 2025/08/01 00:01:03.855174 GPS $GPVTG,270.0,T,,M,0.00,N,0.00,K,D*0D
NAV 2025/08/01 00:01:04.047119 GPS $GPGGA,000223.00,4437.511575,N,12402.054823,W,2,09,0.9,26.221,M,-23.247,M,2.0,0131*42
NAV 2025/08/01 00:01:04.623170 GPS $GPZDA,000224.00,01,08,2025,00,00*6E
NAV 2025/08/01 00:01:04.783144 GPS $GPRMC,000224.00,A,4437.511585,N,12402.054815,W,0.01,211.0,010825,,,D*71
NAV 2025/08/01 00:01:04.863136 GPS $GPVTG,211.0,T,,M,0.01,N,0.02,K,D*09
NAV 2025/08/01 00:01:05.039152 GPS $GPGGA,000224.00,4437.511585,N,12402.054815,W,2,09,0.9,26.158,M,-23.247,M,2.0,0131*42
NAV 2025/08/01 00:01:05.631100 GPS $GPZDA,000225.00,01,08,2025,00,00*6F
NAV 2025/08/01 00:01:05.775134 GPS $GPRMC,000225.00,A,4437.511589,N,12402.054806,W,0.01,180.0,010825,,,D*75
NAV 2025/08/01 00:01:05.855141 GPS $GPVTG,180.0,T,,M,0.01,N,0.02,K,D*02
NAV 2025/08/01 00:01:06.047064 GPS $GPGGA,000225.00,4437.511589,N,12402.054806,W,2,09,0.9,26.114,M,-23.247,M,3.0,0131*44
NAV 2025/08/01 00:01:06.623113 GPS $GPZDA,000226.00,01,08,2025,00,00*6C
NAV 2025/08/01 00:01:06.783098 GPS $GPRMC,000226.00,A,4437.511589,N,12402.054802,W,0.01,180.0,010825,,,D*72
NAV 2025/08/01 00:01:06.863074 GPS $GPVTG,180.0,T,,M,0.01,N,0.01,K,D*01
NAV 2025/08/01 00:01:07.039094 GPS $GPGGA,000226.00,4437.511589,N,12402.054802,W,2,09,0.9,26.084,M,-23.247,M,4.0,0131*4C
NAV 2025/08/01 00:01:07.631046 GPS $GPZDA,000227.00,01,08,2025,00,00*6D
NAV 2025/08/01 00:01:07.775091 GPS $GPRMC,000227.00,A,4437.511591,N,12402.054799,W,0.00,180.0,010825,,,D*76
NAV 2025/08/01 00:01:07.855087 GPS $GPVTG,180.0,T,,M,0.00,N,0.01,K,D*00
NAV 2025/08/01 00:01:08.047024 GPS $GPGGA,000227.00,4437.511591,N,12402.054799,W,2,09,0.9,26.070,M,-23.247,M,5.0,0131*43
NAV 2025/08/01 00:01:08.623073 GPS $GPZDA,000228.00,01,08,2025,00,00*62
NAV 2025/08/01 00:01:08.783032 GPS $GPRMC,000228.00,A,4437.511582,N,12402.054787,W,0.01,213.7,010825,,,D*7B
NAV 2025/08/01 00:01:08.863010 GPS $GPVTG,213.7,T,,M,0.01,N,0.01,K,D*0F
NAV 2025/08/01 00:01:09.039040 GPS $GPGGA,000228.00,4437.511582,N,12402.054787,W,2,09,0.9,26.041,M,-23.247,M,2.0,0131*44
NAV 2025/08/01 00:01:09.631004 GPS $GPZDA,000229.00,01,08,2025,00,00*63
NAV 2025/08/01 00:01:09.775030 GPS $GPRMC,000229.00,A,4437.511570,N,12402.054785,W,0.02,12.5,010825,,,D*47
NAV 2025/08/01 00:01:09.855022 GPS $GPVTG,12.5,T,,M,0.02,N,0.03,K,D*3F
NAV 2025/08/01 00:01:10.031043 GPS $GPGGA,000229.00,4437.511570,N,12402.054785,W,2,09,0.9,26.035,M,-23.247,M,2.0,0131*49
NAV 2025/08/01 00:01:10.623021 GPS $GPZDA,000230.00,01,08,2025,00,00*6B
NAV 2025/08/01 00:01:10.782990 GPS $GPRMC,000230.00,A,4437.511553,N,12402.054798,W,0.00,243.4,010825,,,D*77
NAV 2025/08/01 00:01:10.862990 GPS $GPVTG,243.4,T,,M,0.00,N,0.01,K,D*08
NAV 2025/08/01 00:01:11.039008 GPS $GPGGA,000230.00,4437.511553,N,12402.054798,W,2,09,0.9,26.098,M,-23.247,M,2.0,0131*4B
NAV 2025/08/01 00:01:11.630953 GPS $GPZDA,000231.00,01,08,2025,00,00*6A
NAV 2025/08/01 00:01:11.775003 GPS $GPRMC,000231.00,A,4437.511547,N,12402.054807,W,0.02,352.9,010825,,,D*74
NAV 2025/08/01 00:01:11.854991 GPS $GPVTG,352.9,T,,M,0.02,N,0.03,K,D*04
NAV 2025/08/01 00:01:12.046929 GPS $GPGGA,000231.00,4437.511547,N,12402.054807,W,2,09,0.9,26.134,M,-23.247,M,3.0,0131*40
NAV 2025/08/01 00:01:12.622984 GPS $GPZDA,000232.00,01,08,2025,00,00*69
NAV 2025/08/01 00:01:12.782929 GPS $GPRMC,000232.00,A,4437.511546,N,12402.054814,W,0.01,296.6,010825,,,D*71
NAV 2025/08/01 00:01:12.862950 GPS $GPVTG,296.6,T,,M,0.01,N,0.02,K,D*00
NAV 2025/08/01 00:01:13.038946 GPS $GPGGA,000232.00,4437.511546,N,12402.054814,W,2,09,0.9,26.159,M,-23.247,M,4.0,0131*4C
NAV 2025/08/01 00:01:13.630910 GPS $GPZDA,000233.00,01,08,2025,00,00*68
NAV 2025/08/01 00:01:13.774947 GPS $GPRMC,000233.00,A,4437.511499,N,12402.054838,W,0.01,323.1,010825,,,D*75
NAV 2025/08/01 00:01:13.854962 GPS $GPVTG,323.1,T,,M,0.01,N,0.02,K,D*08
NAV 2025/08/01 00:01:14.046889 GPS $GPGGA,000233.00,4437.511499,N,12402.054838,W,2,08,1.0,26.137,M,-23.247,M,5.0,0131*40
NAV 2025/08/01 00:01:14.622930 GPS $GPZDA,000234.00,01,08,2025,00,00*6F
NAV 2025/08/01 00:01:14.782874 GPS $GPRMC,000234.00,A,4437.511482,N,12402.054864,W,0.00,333.4,010825,,,D*74
NAV 2025/08/01 00:01:14.862891 GPS $GPVTG,333.4,T,,M,0.00,N,0.01,K,D*0E
NAV 2025/08/01 00:01:15.038897 GPS $GPGGA,000234.00,4437.511482,N,12402.054864,W,2,09,0.9,26.154,M,-23.247,M,2.0,0131*4F
NAV 2025/08/01 00:01:15.630872 GPS $GPZDA,000235.00,01,08,2025,00,00*6E
NAV 2025/08/01 00:01:15.774917 GPS $GPRMC,000235.00,A,4437.511478,N,12402.054879,W,0.01,315.0,010825,,,D*7D
NAV 2025/08/01 00:01:15.854924 GPS $GPVTG,315.0,T,,M,0.01,N,0.01,K,D*0F
NAV 2025/08/01 00:01:16.046831 GPS $GPGGA,000235.00,4437.511478,N,12402.054879,W,2,09,0.9,26.148,M,-23.247,M,2.0,0131*4A
NAV 2025/08/01 00:01:16.622880 GPS $GPZDA,000236.00,01,08,2025,00,00*6D
NAV 2025/08/01 00:01:16.782850 GPS $GPRMC,000236.00,A,4437.511470,N,12402.054883,W,0.01,270.0,010825,,,D*71
NAV 2025/08/01 00:01:16.862847 GPS $GPVTG,270.0,T,,M,0.01,N,0.02,K,D*0E
NAV 2025/08/01 00:01:17.038860 GPS $GPGGA,000236.00,4437.511470,N,12402.054883,W,2,09,0.9,26.081,M,-23.247,M,2.0,0131*40
NAV 2025/08/01 00:01:17.630851 GPS $GPZDA,000237.00,01,08,2025,00,00*6C
NAV 2025/08/01 00:01:17.790813 GPS $GPRMC,000237.00,A,4437.511458,N,12402.054889,W,0.01,251.6,010825,,,D*75
NAV 2025/08/01 00:01:17.870782 GPS $GPVTG,251.6,T,,M,0.01,N,0.02,K,D*0B
NAV 2025/08/01 00:01:18.046816 GPS $GPGGA,000237.00,4437.511458,N,12402.054889,W,2,08,1.0,26.040,M,-23.247,M,3.0,0131*44
NAV 2025/08/01 00:01:18.622832 GPS $GPZDA,000238.00,01,08,2025,00,00*63
NAV 2025/08/01 00:01:18.782779 GPS $GPRMC,000238.00,A,4437.511453,N,12402.054896,W,0.03,228.0,010825,,,D*75
NAV 2025/08/01 00:01:18.862792 GPS $GPVTG,228.0,T,,M,0.03,N,0.05,K,D*06
NAV 2025/08/01 00:01:19.038815 GPS $GPGGA,000238.00,4437.511453,N,12402.054896,W,2,09,0.9,26.024,M,-23.247,M,4.0,0131*42
NAV 2025/08/01 00:01:19.630802 GPS $GPZDA,000239.00,01,08,2025,00,00*62
NAV 2025/08/01 00:01:19.790753 GPS $GPRMC,000239.00,A,4437.511455,N,12402.054898,W,0.01,270.0,010825,,,D*73
NAV 2025/08/01 00:01:19.870745 GPS $GPVTG,270.0,T,,M,0.01,N,0.02,K,D*0E
NAV 2025/08/01 00:01:20.046778 GPS $GPGGA,000239.00,4437.511455,N,12402.054898,W,2,09,0.9,26.014,M,-23.247,M,5.0,0131*49
NAV 2025/08/01 00:01:20.622794 GPS $GPZDA,000240.00,01,08,2025,00,00*6C
NAV 2025/08/01 00:01:20.782746 GPS $GPRMC,000240.00,A,4437.511432,N,12402.054895,W,0.03,213.7,010825,,,D*71
NAV 2025/08/01 00:01:20.862747 GPS $GPVTG,213.7,T,,M,0.03,N,0.05,K,D*09
NAV 2025/08/01 00:01:21.038764 GPS $GPGGA,000240.00,4437.511432,N,12402.054895,W,2,09,0.9,25.972,M,-23.247,M,2.0,0131*46
NAV 2025/08/01 00:01:21.630741 GPS $GPZDA,000241.00,01,08,2025,00,00*6D
NAV 2025/08/01 00:01:21.774774 GPS $GPRMC,000241.00,A,4437.511408,N,12402.054898,W,0.02,212.0,010825,,,D*73
NAV 2025/08/01 00:01:21.854766 GPS $GPVTG,212.0,T,,M,0.02,N,0.03,K,D*08
NAV 2025/08/01 00:01:22.046698 GPS $GPGGA,000241.00,4437.511408,N,12402.054898,W,2,09,0.9,25.968,M,-23.247,M,2.0,0131*48
NAV 2025/08/01 00:01:22.622752 GPS $GPZDA,000242.00,01,08,2025,00,00*6E
NAV 2025/08/01 00:01:22.782702 GPS $GPRMC,000242.00,A,4437.511390,N,12402.054902,W,0.02,215.5,010825,,,D*76
NAV 2025/08/01 00:01:22.862700 GPS $GPVTG,215.5,T,,M,0.02,N,0.03,K,D*0A
NAV 2025/08/01 00:01:23.038748 GPS $GPGGA,000242.00,4437.511390,N,12402.054902,W,2,09,0.9,26.012,M,-23.247,M,2.0,0131*48
NAV 2025/08/01 00:01:23.630665 GPS $GPZDA,000243.00,01,08,2025,00,00*6F
NAV 2025/08/01 00:01:23.774725 GPS $GPRMC,000243.00,A,4437.511378,N,12402.054904,W,0.02,194.0,010825,,,D*78
NAV 2025/08/01 00:01:23.854719 GPS $GPVTG,194.0,T,,M,0.02,N,0.03,K,D*05
NAV 2025/08/01 00:01:24.046645 GPS $GPGGA,000243.00,4437.511378,N,12402.054904,W,2,09,0.9,26.037,M,-23.247,M,3.0,0131*4F
NAV 2025/08/01 00:01:24.622678 GPS $GPZDA,000244.00,01,08,2025,00,00*68
NAV 2025/08/01 00:01:24.782628 GPS $GPRMC,000244.00,A,4437.511375,N,12402.054904,W,0.00,90.0,010825,,,D*45
NAV 2025/08/01 00:01:24.862648 GPS $GPVTG,90.0,T,,M,0.00,N,0.00,K,D*31
NAV 2025/08/01 00:01:25.038644 GPS $GPGGA,000244.00,4437.511375,N,12402.054904,W,2,09,0.9,26.063,M,-23.247,M,4.0,0131*43
NAV 2025/08/01 00:01:25.630585 GPS $GPZDA,000245.00,01,08,2025,00,00*69
NAV 2025/08/01 00:01:25.774659 GPS $GPRMC,000245.00,A,4437.511376,N,12402.054902,W,0.01,14.0,010825,,,D*4C
NAV 2025/08/01 00:01:25.854662 GPS $GPVTG,14.0,T,,M,0.01,N,0.01,K,D*3D
NAV 2025/08/01 00:01:26.030661 GPS $GPGGA,000245.00,4437.511376,N,12402.054902,W,2,09,0.9,26.075,M,-23.247,M,5.0,0131*41
NAV 2025/08/01 00:01:26.622652 GPS $GPZDA,000246.00,01,08,2025,00,00*6A
NAV 2025/08/01 00:01:26.782592 GPS $GPRMC,000246.00,A,4437.511392,N,12402.054911,W,0.00,90.0,010825,,,D*4A
NAV 2025/08/01 00:01:26.862583 GPS $GPVTG,90.0,T,,M,0.00,N,0.00,K,D*31
NAV 2025/08/01 00:01:27.038594 GPS $GPGGA,000246.00,4437.511392,N,12402.054911,W,2,09,0.9,26.114,M,-23.247,M,2.0,0131*4B
NAV 2025/08/01 00:01:27.630563 GPS $GPZDA,000247.00,01,08,2025,00,00*6B
NAV 2025/08/01 00:01:27.774625 GPS $GPRMC,000247.00,A,4437.511419,N,12402.054905,W,0.01,315.0,010825,,,D*75
NAV 2025/08/01 00:01:27.854632 GPS $GPVTG,315.0,T,,M,0.01,N,0.01,K,D*0F
NAV 2025/08/01 00:01:28.046558 GPS $GPGGA,000247.00,4437.511419,N,12402.054905,W,2,09,0.9,26.132,M,-23.247,M,2.0,0131*4F
NAV 2025/08/01 00:01:28.622608 GPS $GPZDA,000248.00,01,08,2025,00,00*64
NAV 2025/08/01 00:01:28.782543 GPS $GPRMC,000248.00,A,4437.511437,N,12402.054897,W,0.02,11.3,010825,,,D*4B
NAV 2025/08/01 00:01:28.862533 GPS $GPVTG,11.3,T,,M,0.02,N,0.04,K,D*3D
NAV 2025/08/01 00:01:29.038550 GPS $GPGGA,000248.00,4437.511437,N,12402.054897,W,2,09,0.9,26.089,M,-23.247,M,2.0,0131*47
NAV 2025/08/01 00:01:29.630527 GPS $GPZDA,000249.00,01,08,2025,00,00*65
NAV 2025/08/01 00:01:29.774545 GPS $GPRMC,000249.00,A,4437.511449,N,12402.054891,W,0.01,0.0,010825,,,D*75
NAV 2025/08/01 00:01:29.854527 GPS $GPVTG,0.0,T,,M,0.01,N,0.02,K,D*0B
NAV 2025/08/01 00:01:30.030539 GPS $GPGGA,000249.00,4437.511449,N,12402.054891,W,2,09,0.9,26.064,M,-23.247,M,3.0,0131*4B
NAV 2025/08/01 00:01:30.622545 GPS $GPZDA,000250.00,01,08,2025,00,00*6D
NAV 2025/08/01 00:01:30.782520 GPS $GPRMC,000250.00,A,4437.511455,N,12402.054889,W,0.00,180.0,010825,,,D*71
NAV 2025/08/01 00:01:30.862500 GPS $GPVTG,180.0,T,,M,0.00,N,0.00,K,D*01
NAV 2025/08/01 00:01:31.038530 GPS $GPGGA,000250.00,4437.511455,N,12402.054889,W,2,09,0.9,26.050,M,-23.247,M,4.0,0131*47
NAV 2025/08/01 00:01:31.630488 GPS $GPZDA,000251.00,01,08,2025,00,00*6C
NAV 2025/08/01 00:01:31.774504 GPS $GPRMC,000251.00,A,4437.511464,N,12402.054886,W,0.01,0.0,010825,,,D*75
NAV 2025/08/01 00:01:31.854508 GPS $GPVTG,0.0,T,,M,0.01,N,0.01,K,D*08
NAV 2025/08/01 00:01:32.030530 GPS $GPGGA,000251.00,4437.511464,N,12402.054886,W,2,09,0.9,26.039,M,-23.247,M,5.0,0131*45
NAV 2025/08/01 00:01:32.622490 GPS $GPZDA,000252.00,01,08,2025,00,00*6F
NAV 2025/08/01 00:01:32.782461 GPS $GPRMC,000252.00,A,4437.511453,N,12402.054874,W,0.00,296.6,010825,,,D*75
NAV 2025/08/01 00:01:32.862455 GPS $GPVTG,296.6,T,,M,0.00,N,0.01,K,D*02
NAV 2025/08/01 00:01:33.038489 GPS $GPGGA,000252.00,4437.511453,N,12402.054874,W,2,09,0.9,25.998,M,-23.247,M,2.0,0131*49
NAV 2025/08/01 00:01:33.630442 GPS $GPZDA,000253.00,01,08,2025,00,00*6E
NAV 2025/08/01 00:01:33.774492 GPS $GPRMC,000253.00,A,4437.511431,N,12402.054879,W,0.00,180.0,010825,,,D*7F
NAV 2025/08/01 00:01:33.854470 GPS $GPVTG,180.0,T,,M,0.00,N,0.00,K,D*01
NAV 2025/08/01 00:01:34.046423 GPS $GPGGA,000253.00,4437.511431,N,12402.054879,W,2,09,0.9,25.969,M,-23.247,M,2.0,0131*4F
NAV 2025/08/01 00:01:34.622445 GPS $GPZDA,000254.00,01,08,2025,00,00*69
NAV 2025/08/01 00:01:34.782406 GPS $GPRMC,000254.00,A,4437.511420,N,12402.054871,W,0.00,45.0,010825,,,D*48
NAV 2025/08/01 00:01:34.862388 GPS $GPVTG,45.0,T,,M,0.00,N,0.00,K,D*39
NAV 2025/08/01 00:01:35.038415 GPS $GPGGA,000254.00,4437.511420,N,12402.054871,W,2,09,0.9,25.987,M,-23.247,M,2.0,0131*40
NAV 2025/08/01 00:01:35.630404 GPS $GPZDA,000255.00,01,08,2025,00,00*68
NAV 2025/08/01 00:01:35.774418 GPS $GPRMC,000255.00,A,4437.511410,N,12402.054868,W,0.00,90.0,010825,,,D*4A
NAV 2025/08/01 00:01:35.854416 GPS $GPVTG,90.0,T,,M,0.00,N,0.00,K,D*31
NAV 2025/08/01 00:01:36.030429 GPS $GPGGA,000255.00,4437.511410,N,12402.054868,W,2,09,0.9,25.991,M,-23.247,M,3.0,0131*4C
NAV 2025/08/01 00:01:36.622387 GPS $GPZDA,000256.00,01,08,2025,00,00*6B
NAV 2025/08/01 00:01:36.782366 GPS $GPRMC,000256.00,A,4437.511400,N,12402.054867,W,0.01,191.3,010825,,,D*75
NAV 2025/08/01 00:01:36.862367 GPS $GPVTG,191.3,T,,M,0.01,N,0.02,K,D*01
NAV 2025/08/01 00:01:37.038382 GPS $GPGGA,000256.00,4437.511400,N,12402.054867,W,2,09,0.9,25.992,M,-23.247,M,4.0,0131*45
NAV 2025/08/01 00:01:37.630320 GPS $GPZDA,000257.00,01,08,2025,00,00*6A
NAV 2025/08/01 00:01:37.774379 GPS $GPRMC,000257.00,A,4437.511394,N,12402.054867,W,0.01,180.0,010825,,,D*7D
NAV 2025/08/01 00:01:37.854373 GPS $GPVTG,180.0,T,,M,0.01,N,0.01,K,D*01
NAV 2025/08/01 00:01:38.046305 GPS $GPGGA,000257.00,4437.511394,N,12402.054867,W,2,09,0.9,25.994,M,-23.247,M,5.0,0131*49
NAV 2025/08/01 00:01:38.622349 GPS $GPZDA,000258.00,01,08,2025,00,00*65
NAV 2025/08/01 00:01:38.782314 GPS $GPRMC,000258.00,A,4437.511406,N,12402.054878,W,0.01,180.0,010825,,,D*70
NAV 2025/08/01 00:01:38.862309 GPS $GPVTG,180.0,T,,M,0.01,N,0.02,K,D*02
NAV 2025/08/01 00:01:39.038328 GPS $GPGGA,000258.00,4437.511406,N,12402.054878,W,2,09,0.9,26.032,M,-23.247,M,2.0,0131*45
NAV 2025/08/01 00:01:39.630268 GPS $GPZDA,000259.00,01,08,2025,00,00*64
NAV 2025/08/01 00:01:39.774330 GPS $GPRMC,000259.00,A,4437.511424,N,12402.054878,W,0.01,189.5,010825,,,D*7D
NAV 2025/08/01 00:01:39.854336 GPS $GPVTG,189.5,T,,M,0.01,N,0.02,K,D*0E
NAV 2025/08/01 00:01:40.046264 GPS $GPGGA,000259.00,4437.511424,N,12402.054878,W,2,09,0.9,26.023,M,-23.247,M,2.0,0131*44
NAV 2025/08/01 00:01:40.622290 GPS $GPZDA,000300.00,01,08,2025,00,00*69
NAV 2025/08/01 00:01:40.782256 GPS $GPRMC,000300.00,A,4437.511431,N,12402.054890,W,0.01,194.0,010825,,,D*7B
NAV 2025/08/01 00:01:40.862265 GPS $GPVTG,194.0,T,,M,0.01,N,0.01,K,D*04
NAV 2025/08/01 00:01:41.038287 GPS $GPGGA,000300.00,4437.511431,N,12402.054890,W,2,09,0.9,25.981,M,-23.247,M,2.0,0131*49
NAV 2025/08/01 00:01:41.630237 GPS $GPZDA,000301.00,01,08,2025,00,00*68
NAV 2025/08/01 00:01:41.774284 GPS $GPRMC,000301.00,A,4437.511435,N,12402.054898,W,0.00,180.0,010825,,,D*72
NAV 2025/08/01 00:01:41.854305 GPS $GPVTG,180.0,T,,M,0.00,N,0.01,K,D*00
NAV 2025/08/01 00:01:42.046215 GPS $GPGGA,000301.00,4437.511435,N,12402.054898,W,2,09,0.9,25.946,M,-23.247,M,3.0,0131*4E
NAV 2025/08/01 00:01:42.622281 GPS $GPZDA,000302.00,01,08,2025,00,00*6B
NAV 2025/08/01 00:01:42.782247 GPS $GPRMC,000302.00,A,4437.511440,N,12402.054902,W,0.00,90.0,010825,,,D*41
NAV 2025/08/01 00:01:42.862232 GPS $GPVTG,90.0,T,,M,0.00,N,0.00,K,D*31
NAV 2025/08/01 00:01:43.038240 GPS $GPGGA,000302.00,4437.511440,N,12402.054902,W,2,09,0.9,25.931,M,-23.247,M,4.0,0131*4A
NAV 2025/08/01 00:01:43.630189 GPS $GPZDA,000303.00,01,08,2025,00,00*6A
NAV 2025/08/01 00:01:43.774241 GPS $GPRMC,000303.00,A,4437.511445,N,12402.054901,W,0.00,153.4,010825,,,D*7C
NAV 2025/08/01 00:01:43.854263 GPS $GPVTG,153.4,T,,M,0.00,N,0.01,K,D*0A
NAV 2025/08/01 00:01:44.046164 GPS $GPGGA,000303.00,4437.511445,N,12402.054901,W,2,09,0.9,25.927,M,-23.247,M,5.0,0131*4B
NAV 2025/08/01 00:01:44.622235 GPS $GPZDA,000304.00,01,08,2025,00,00*6D
NAV 2025/08/01 00:01:44.782176 GPS $GPRMC,000304.00,A,4437.511447,N,12402.054892,W,0.01,56.3,010825,,,D*40
NAV 2025/08/01 00:01:44.862160 GPS $GPVTG,56.3,T,,M,0.01,N,0.01,K,D*38
NAV 2025/08/01 00:01:45.038177 GPS $GPGGA,000304.00,4437.511447,N,12402.054892,W,2,09,0.9,25.929,M,-23.247,M,2.0,0131*4C
NAV 2025/08/01 00:01:45.630152 GPS $GPZDA,000305.00,01,08,2025,00,00*6C
NAV 2025/08/01 00:01:45.774176 GPS $GPRMC,000305.00,A,4437.511438,N,12402.054896,W,0.01,0.0,010825,,,D*7D
NAV 2025/08/01 00:01:45.854168 GPS $GPVTG,0.0,T,,M,0.01,N,0.01,K,D*08
NAV 2025/08/01 00:01:46.030182 GPS $GPGGA,000305.00,4437.511438,N,12402.054896,W,2,09,0.9,25.944,M,-23.247,M,2.0,0131*4A
NAV 2025/08/01 00:01:46.638116 GPS $GPZDA,000306.00,01,08,2025,00,00*6F
NAV 2025/08/01 00:01:46.782118 GPS $GPRMC,000306.00,A,4437.511436,N,12402.054899,W,0.00,0.0,010825,,,D*7E
NAV 2025/08/01 00:01:46.862100 GPS $GPVTG,0.0,T,,M,0.00,N,0.00,K,D*08
NAV 2025/08/01 00:01:47.038121 GPS $GPGGA,000306.00,4437.511436,N,12402.054899,W,2,09,0.9,26.009,M,-23.247,M,2.0,0131*4B
NAV 2025/08/01 00:01:47.630088 GPS $GPZDA,000307.00,01,08,2025,00,00*6E
NAV 2025/08/01 00:01:47.774135 GPS $GPRMC,000307.00,A,4437.511441,N,12402.054896,W,0.01,39.8,010825,,,D*43
NAV 2025/08/01 00:01:47.854126 GPS $GPVTG,39.8,T,,M,0.01,N,0.03,K,D*38
NAV 2025/08/01 00:01:48.030143 GPS $GPGGA,000307.00,4437.511441,N,12402.054896,W,2,09,0.9,26.040,M,-23.247,M,3.0,0131*49
NAV 2025/08/01 00:01:48.622124 GPS $GPZDA,000308.00,01,08,2025,00,00*61
NAV 2025/08/01 00:01:48.782061 GPS $GPRMC,000308.00,A,4437.511426,N,12402.054899,W,0.00,63.4,010825,,,D*40
NAV 2025/08/01 00:01:48.862040 GPS $GPVTG,63.4,T,,M,0.00,N,0.01,K,D*38
NAV 2025/08/01 00:01:49.038064 GPS $GPGGA,000308.00,4437.511426,N,12402.054899,W,2,08,1.0,26.044,M,-23.247,M,4.0,0131*42
NAV 2025/08/01 00:01:49.630065 GPS $GPZDA,000309.00,01,08,2025,00,00*60
NAV 2025/08/01 00:01:49.790021 GPS $GPRMC,000309.00,A,4437.511422,N,12402.054900,W,0.01,36.9,010825,,,D*48
NAV 2025/08/01 00:01:49.854102 GPS $GPVTG,36.9,T,,M,0.01,N,0.02,K,D*37
NAV 2025/08/01 00:01:50.046041 GPS $GPGGA,000309.00,4437.511422,N,12402.054900,W,2,09,0.9,26.050,M,-23.247,M,5.0,0131*4B
NAV 2025/08/01 00:01:50.622058 GPS $GPZDA,000310.00,01,08,2025,00,00*68
NAV 2025/08/01 00:01:50.782009 GPS $GPRMC,000310.00,A,4437.511422,N,12402.054909,W,0.01,36.9,010825,,,D*49
NAV 2025/08/01 00:01:50.861994 GPS $GPVTG,36.9,T,,M,0.01,N,0.02,K,D*37
NAV 2025/08/01 00:01:51.038015 GPS $GPGGA,000310.00,4437.511422,N,12402.054909,W,2,08,1.0,26.043,M,-23.247,M,2.0,0131*46
NAV 2025/08/01 00:01:51.629990 GPS $GPZDA,000311.00,01,08,2025,00,00*69
NAV 2025/08/01 00:01:51.774032 GPS $GPRMC,000311.00,A,4437.511456,N,12402.054893,W,0.01,45.0,010825,,,D*44
NAV 2025/08/01 00:01:51.854060 GPS $GPVTG,45.0,T,,M,0.01,N,0.01,K,D*39
NAV 2025/08/01 00:01:52.030053 GPS $GPGGA,000311.00,4437.511456,N,12402.054893,W,2,09,0.9,26.060,M,-23.247,M,2.0,0131*4E
NAV 2025/08/01 00:01:52.622012 GPS $GPZDA,000312.00,01,08,2025,00,00*6A
NAV 2025/08/01 00:01:52.781974 GPS $GPRMC,000312.00,A,4437.511464,N,12402.054883,W,0.00,90.0,010825,,,D*4E
NAV 2025/08/01 00:01:52.861951 GPS $GPVTG,90.0,T,,M,0.00,N,0.01,K,D*30
NAV 2025/08/01 00:01:53.037983 GPS $GPGGA,000312.00,4437.511464,N,12402.054883,W,2,09,0.9,26.006,M,-23.247,M,2.0,0131*4D
NAV 2025/08/01 00:01:53.629970 GPS $GPZDA,000313.00,01,08,2025,00,00*6B
NAV 2025/08/01 00:01:53.774003 GPS $GPRMC,000313.00,A,4437.511473,N,12402.054875,W,0.01,180.0,010825,,,D*71
NAV 2025/08/01 00:01:53.854027 GPS $GPVTG,180.0,T,,M,0.01,N,0.02,K,D*02
NAV 2025/08/01 00:01:54.045936 GPS $GPGGA,000313.00,4437.511473,N,12402.054875,W,2,09,0.9,25.983,M,-23.247,M,3.0,0131*45
NAV 2025/08/01 00:01:54.621977 GPS $GPZDA,000314.00,01,08,2025,00,00*6C
NAV 2025/08/01 00:01:54.781934 GPS $GPRMC,000314.00,A,4437.511463,N,12402.054874,W,0.00,153.4,010825,,,D*7D
NAV 2025/08/01 00:01:54.861940 GPS $GPVTG,153.4,T,,M,0.00,N,0.01,K,D*0A
NAV 2025/08/01 00:01:55.037959 GPS $GPGGA,000314.00,4437.511463,N,12402.054874,W,2,08,1.0,25.961,M,-23.247,M,4.0,0131*40
NAV 2025/08/01 00:01:55.629921 GPS $GPZDA,000315.00,01,08,2025,00,00*6D
NAV 2025/08/01 00:01:55.773947 GPS $GPRMC,000315.00,A,4437.511465,N,12402.054874,W,0.01,180.0,010825,,,D*71
NAV 2025/08/01 00:01:55.853962 GPS $GPVTG,180.0,T,,M,0.01,N,0.01,K,D*01
NAV 2025/08/01 00:01:56.045885 GPS $GPGGA,000315.00,4437.511465,N,12402.054874,W,2,09,0.9,25.953,M,-23.247,M,5.0,0131*4E
NAV 2025/08/01 00:01:56.621916 GPS $GPZDA,000316.00,01,08,2025,00,00*6E
NAV 2025/08/01 00:01:56.781888 GPS $GPRMC,000316.00,A,4437.511465,N,12402.054866,W,0.01,180.0,010825,,,D*71
NAV 2025/08/01 00:01:56.861884 GPS $GPVTG,180.0,T,,M,0.01,N,0.02,K,D*02
NAV 2025/08/01 00:01:57.037912 GPS $GPGGA,000316.00,4437.511465,N,12402.054866,W,2,09,0.9,25.948,M,-23.247,M,2.0,0131*43
NAV 2025/08/01 00:01:57.629863 GPS $GPZDA,000317.00,01,08,2025,00,00*6F
NAV 2025/08/01 00:01:57.773903 GPS $GPRMC,000317.00,A,4437.511449,N,12402.054875,W,0.01,195.9,010825,,,D*71
NAV 2025/08/01 00:01:57.853918 GPS $GPVTG,195.9,T,,M,0.01,N,0.03,K,D*0E
NAV 2025/08/01 00:01:58.045834 GPS $GPGGA,000317.00,4437.511449,N,12402.054875,W,2,09,0.9,25.944,M,-23.247,M,2.0,0131*42
NAV 2025/08/01 00:01:58.621861 GPS $GPZDA,000318.00,01,08,2025,00,00*60
NAV 2025/08/01 00:01:58.781832 GPS $GPRMC,000318.00,A,4437.511444,N,12402.054893,W,0.01,18.4,010825,,,D*42
NAV 2025/08/01 00:01:58.861799 GPS $GPVTG,18.4,T,,M,0.01,N,0.01,K,D*35
NAV 2025/08/01 00:01:59.037834 GPS $GPGGA,000318.00,4437.511444,N,12402.054893,W,2,09,0.9,25.953,M,-23.247,M,2.0,0131*4E
NAV 2025/08/01 00:01:59.629807 GPS $GPZDA,000319.00,01,08,2025,00,00*61
NAV 2025/08/01 00:01:59.773853 GPS $GPRMC,000319.00,A,4437.511446,N,12402.054915,W,0.00,180.0,010825,,,D*7B
NAV 2025/08/01 00:01:59.853875 GPS $GPVTG,180.0,T,,M,0.00,N,0.01,K,D*00
NAV 2025/08/01 00:02:00.045789 GPS $GPGGA,000319.00,4437.511446,N,12402.054915,W,2,09,0.9,25.973,M,-23.247,M,3.0,0131*41
NAV 2025/08/01 00:02:00.621822 GPS $GPZDA,000320.00,01,08,2025,00,00*6B
NAV 2025/08/01 00:02:00.781792 GPS $GPRMC,000320.00,A,4437.511445,N,12402.054930,W,0.00,243.4,010825,,,D*7D
NAV 2025/08/01 00:02:00.861783 GPS $GPVTG,243.4,T,,M,0.00,N,0.01,K,D*08
NAV 2025/08/01 00:02:01.037831 GPS $GPGGA,000320.00,4437.511445,N,12402.054930,W,2,09,0.9,25.984,M,-23.247,M,4.0,0131*40
NAV 2025/08/01 00:02:01.629753 GPS $GPZDA,000321.00,01,08,2025,00,00*6A
NAV 2025/08/01 00:02:01.773780 GPS $GPRMC,000321.00,A,4437.511447,N,12402.054939,W,0.01,0.0,010825,,,D*77
NAV 2025/08/01 00:02:01.853772 GPS $GPVTG,0.0,T,,M,0.01,N,0.02,K,D*0B
NAV 2025/08/01 00:02:02.029779 GPS $GPGGA,000321.00,4437.511447,N,12402.054939,W,2,09,0.9,25.989,M,-23.247,M,5.0,0131*46
NAV 2025/08/01 00:02:02.621772 GPS $GPZDA,000322.00,01,08,2025,00,00*69
NAV 2025/08/01 00:02:02.781742 GPS $GPRMC,000322.00,A,4437.511447,N,12402.054952,W,0.00,90.0,010825,,,D*41
NAV 2025/08/01 00:02:02.861729 GPS $GPVTG,90.0,T,,M,0.00,N,0.00,K,D*31
NAV 2025/08/01 00:02:03.037739 GPS $GPGGA,000322.00,4437.511447,N,12402.054952,W,2,09,0.9,25.988,M,-23.247,M,2.0,0131*4E
NAV 2025/08/01 00:02:03.629735 GPS $GPZDA,000323.00,01,08,2025,00,00*68
NAV 2025/08/01 00:02:03.789705 GPS $GPRMC,000323.00,A,4437.511466,N,12402.054948,W,0.01,303.7,010825,,,D*77
NAV 2025/08/01 00:02:03.869693 GPS $GPVTG,303.7,T,,M,0.01,N,0.01,K,D*0F
NAV 2025/08/01 00:02:04.045703 GPS $GPGGA,000323.00,4437.511466,N,12402.054948,W,2,09,0.9,25.998,M,-23.247,M,2.0,0131*46
NAV 2025/08/01 00:02:04.621765 GPS $GPZDA,000324.00,01,08,2025,00,00*6F
NAV 2025/08/01 00:02:04.781683 GPS $GPRMC,000324.00,A,4437.511482,N,12402.054927,W,0.02,5.2,010825,,,D*70
NAV 2025/08/01 00:02:04.845752 GPS $GPVTG,5.2,T,,M,0.02,N,0.04,K,D*09
NAV 2025/08/01 00:02:05.037665 GPS $GPGGA,000324.00,4437.511482,N,12402.054927,W,2,09,0.9,25.986,M,-23.247,M,2.0,0131*4D
NAV 2025/08/01 00:02:05.629675 GPS $GPZDA,000325.00,01,08,2025,00,00*6E
NAV 2025/08/01 00:02:05.773702 GPS $GPRMC,000325.00,A,4437.511486,N,12402.054915,W,0.00,90.0,010825,,,D*48
NAV 2025/08/01 00:02:05.853707 GPS $GPVTG,90.0,T,,M,0.00,N,0.00,K,D*31
NAV 2025/08/01 00:02:06.029710 GPS $GPGGA,000325.00,4437.511486,N,12402.054915,W,2,09,0.9,25.980,M,-23.247,M,3.0,0131*4E
NAV 2025/08/01 00:02:06.621696 GPS $GPZDA,000326.00,01,08,2025,00,00*6D
NAV 2025/08/01 00:02:06.781634 GPS $GPRMC,000326.00,A,4437.511491,N,12402.054908,W,0.01,0.0,010825,,,D*79
NAV 2025/08/01 00:02:06.845696 GPS $GPVTG,0.0,T,,M,0.01,N,0.02,K,D*0B
NAV 2025/08/01 00:02:07.037611 GPS $GPGGA,000326.00,4437.511491,N,12402.054908,W,2,09,0.9,25.973,M,-23.247,M,4.0,0131*4C
NAV 2025/08/01 00:02:07.629626 GPS $GPZDA,000327.00,01,08,2025,00,00*6C
NAV 2025/08/01 00:02:07.773664 GPS $GPRMC,000327.00,A,4437.511489,N,12402.054905,W,0.01,198.4,010825,,,D*78
NAV 2025/08/01 00:02:07.853683 GPS $GPVTG,198.4,T,,M,0.01,N,0.01,K,D*0C
NAV 2025/08/01 00:02:08.045591 GPS $GPGGA,000327.00,4437.511489,N,12402.054905,W,2,09,0.9,25.966,M,-23.247,M,5.0,0131*4C
NAV 2025/08/01 00:02:08.621646 GPS $GPZDA,000328.00,01,08,2025,00,00*63
NAV 2025/08/01 00:02:08.781593 GPS $GPRMC,000328.00,A,4437.511486,N,12402.054893,W,0.01,194.0,010825,,,D*7E
NAV 2025/08/01 00:02:08.861578 GPS $GPVTG,194.0,T,,M,0.01,N,0.01,K,D*04
NAV 2025/08/01 00:02:09.037622 GPS $GPGGA,000328.00,4437.511486,N,12402.054893,W,2,09,0.9,25.969,M,-23.247,M,2.0,0131*4A
NAV 2025/08/01 00:02:09.629570 GPS $GPZDA,000329.00,01,08,2025,00,00*62
NAV 2025/08/01 00:02:09.773588 GPS $GPRMC,000329.00,A,4437.511472,N,12402.054900,W,0.01,0.0,010825,,,D*73
NAV 2025/08/01 00:02:09.853592 GPS $GPVTG,0.0,T,,M,0.01,N,0.01,K,D*08
NAV 2025/08/01 00:02:10.029614 GPS $GPGGA,000329.00,4437.511472,N,12402.054900,W,2,09,0.9,25.969,M,-23.247,M,2.0,0131*4B
NAV 2025/08/01 00:02:10.621593 GPS $GPZDA,000330.00,01,08,2025,00,00*6A
NAV 2025/08/01 00:02:10.781552 GPS $GPRMC,000330.00,A,4437.511465,N,12402.054911,W,0.00,90.0,010825,,,D*45
NAV 2025/08/01 00:02:10.861531 GPS $GPVTG,90.0,T,,M,0.00,N,0.00,K,D*31
NAV 2025/08/01 00:02:11.037542 GPS $GPGGA,000330.00,4437.511465,N,12402.054911,W,2,09,0.9,26.006,M,-23.247,M,2.0,0131*46
NAV 2025/08/01 00:02:11.629527 GPS $GPZDA,000331.00,01,08,2025,00,00*6B
NAV 2025/08/01 00:02:11.773570 GPS $GPRMC,000331.00,A,4437.511457,N,12402.054917,W,0.01,180.0,010825,,,D*72
NAV 2025/08/01 00:02:11.853601 GPS $GPVTG,180.0,T,,M,0.01,N,0.01,K,D*01
NAV 2025/08/01 00:02:12.045502 GPS $GPGGA,000331.00,4437.511457,N,12402.054917,W,2,09,0.9,26.027,M,-23.247,M,3.0,0131*42
NAV 2025/08/01 00:02:12.621549 GPS $GPZDA,000332.00,01,08,2025,00,00*68
NAV 2025/08/01 00:02:12.781493 GPS $GPRMC,000332.00,A,4437.511451,N,12402.054921,W,0.00,153.4,010825,,,D*79
NAV 2025/08/01 00:02:12.861490 GPS $GPVTG,153.4,T,,M,0.00,N,0.01,K,D*0A
NAV 2025/08/01 00:02:13.037514 GPS $GPGGA,000332.00,4437.511451,N,12402.054921,W,2,09,0.9,26.036,M,-23.247,M,4.0,0131*45
NAV 2025/08/01 00:02:13.629467 GPS $GPZDA,000333.00,01,08,2025,00,00*69
NAV 2025/08/01 00:02:13.773519 GPS $GPRMC,000333.00,A,4437.511449,N,12402.054922,W,0.01,31.0,010825,,,D*42
NAV 2025/08/01 00:02:13.853520 GPS $GPVTG,31.0,T,,M,0.01,N,0.02,K,D*39
NAV 2025/08/01 00:02:14.029514 GPS $GPGGA,000333.00,4437.511449,N,12402.054922,W,2,09,0.9,26.027,M,-23.247,M,5.0,0131*4F
NAV 2025/08/01 00:02:14.621489 GPS $GPZDA,000334.00,01,08,2025,00,00*6E
NAV 2025/08/01 00:02:14.781445 GPS $GPRMC,000334.00,A,4437.511447,N,12402.054931,W,0.01,135.0,010825,,,D*7C
NAV 2025/08/01 00:02:14.861441 GPS $GPVTG,135.0,T,,M,0.01,N,0.01,K,D*0F
NAV 2025/08/01 00:02:15.037466 GPS $GPGGA,000334.00,4437.511447,N,12402.054931,W,2,09,0.9,26.030,M,-23.247,M,2.0,0131*45
NAV 2025/08/01 00:02:15.629431 GPS $GPZDA,000335.00,01,08,2025,00,00*6F
NAV 2025/08/01 00:02:15.773475 GPS $GPRMC,000335.00,A,4437.511462,N,12402.054919,W,0.00,153.4,010825,,,D*75
NAV 2025/08/01 00:02:15.853487 GPS $GPVTG,153.4,T,,M,0.00,N,0.01,K,D*0A
NAV 2025/08/01 00:02:16.045410 GPS $GPGGA,000335.00,4437.511462,N,12402.054919,W,2,09,0.9,26.027,M,-23.247,M,2.0,0131*4F
NAV 2025/08/01 00:02:16.621445 GPS $GPZDA,000336.00,01,08,2025,00,00*6C
NAV 2025/08/01 00:02:16.781395 GPS $GPRMC,000336.00,A,4437.511473,N,12402.054902,W,0.01,80.5,010825,,,D*43
NAV 2025/08/01 00:02:16.861387 GPS $GPVTG,80.5,T,,M,0.01,N,0.02,K,D*36
NAV 2025/08/01 00:02:17.037403 GPS $GPGGA,000336.00,4437.511473,N,12402.054902,W,2,09,0.9,25.994,M,-23.247,M,2.0,0131*44
NAV 2025/08/01 00:02:17.629385 GPS $GPZDA,000337.00,01,08,2025,00,00*6D
NAV 2025/08/01 00:02:17.773431 GPS $GPRMC,000337.00,A,4437.511478,N,12402.054892,W,0.01,108.4,010825,,,D*71
NAV 2025/08/01 00:02:17.853416 GPS $GPVTG,108.4,T,,M,0.01,N,0.01,K,D*05
NAV 2025/08/01 00:02:18.045335 GPS $GPGGA,000337.00,4437.511478,N,12402.054892,W,2,09,0.9,25.979,M,-23.247,M,3.0,0131*44
NAV 2025/08/01 00:02:18.621393 GPS $GPZDA,000338.00,01,08,2025,00,00*62
NAV 2025/08/01 00:02:18.781380 GPS $GPRMC,000338.00,A,4437.511482,N,12402.054882,W,0.01,78.7,010825,,,D*4F
NAV 2025/08/01 00:02:18.861326 GPS $GPVTG,78.7,T,,M,0.01,N,0.02,K,D*33
NAV 2025/08/01 00:02:19.037344 GPS $GPGGA,000338.00,4437.511482,N,12402.054882,W,2,09,0.9,25.969,M,-23.247,M,4.0,0131*49
NAV 2025/08/01 00:02:19.629352 GPS $GPZDA,000339.00,01,08,2025,00,00*63
NAV 2025/08/01 00:02:19.773412 GPS $GPRMC,000339.00,A,4437.511487,N,12402.054874,W,0.01,74.1,010825,,,D*48
NAV 2025/08/01 00:02:19.853353 GPS $GPVTG,74.1,T,,M,0.01,N,0.03,K,D*38
NAV 2025/08/01 00:02:20.029317 GPS $GPGGA,000339.00,4437.511487,N,12402.054874,W,2,09,0.9,25.967,M,-23.247,M,5.0,0131*4B
NAV 2025/08/01 00:02:20.621350 GPS $GPZDA,000340.00,01,08,2025,00,00*6D
NAV 2025/08/01 00:02:20.781330 GPS $GPRMC,000340.00,A,4437.511486,N,12402.054859,W,0.01,74.1,010825,,,D*48
NAV 2025/08/01 00:02:20.861290 GPS $GPVTG,74.1,T,,M,0.01,N,0.03,K,D*38
NAV 2025/08/01 00:02:21.037270 GPS $GPGGA,000340.00,4437.511486,N,12402.054859,W,2,09,0.9,25.960,M,-23.247,M,2.0,0131*4B
NAV 2025/08/01 00:02:21.629279 GPS $GPZDA,000341.00,01,08,2025,00,00*6C
NAV 2025/08/01 00:02:21.773313 GPS $GPRMC,000341.00,A,4437.511470,N,12402.054864,W,0.01,63.4,010825,,,D*4D
NAV 2025/08/01 00:02:21.853300 GPS $GPVTG,63.4,T,,M,0.01,N,0.02,K,D*3A
NAV 2025/08/01 00:02:22.029324 GPS $GPGGA,000341.00,4437.511470,N,12402.054864,W,2,09,0.9,25.955,M,-23.247,M,2.0,0131*4B
NAV 2025/08/01 00:02:22.621323 GPS $GPZDA,000342.00,01,08,2025,00,00*6F
NAV 2025/08/01 00:02:22.781264 GPS $GPRMC,000342.00,A,4437.511458,N,12402.054879,W,0.02,63.4,010825,,,D*4B
NAV 2025/08/01 00:02:22.861237 GPS $GPVTG,63.4,T,,M,0.02,N,0.04,K,D*3F
NAV 2025/08/01 00:02:23.037267 GPS $GPGGA,000342.00,4437.511458,N,12402.054879,W,2,09,0.9,25.957,M,-23.247,M,2.0,0131*4C
NAV 2025/08/01 00:02:23.629237 GPS $GPZDA,000343.00,01,08,2025,00,00*6E
NAV 2025/08/01 00:02:23.773267 GPS $GPRMC,000343.00,A,4437.511442,N,12402.054893,W,0.01,53.1,010825,,,D*40
NAV 2025/08/01 00:02:23.853264 GPS $GPVTG,53.1,T,,M,0.01,N,0.02,K,D*3C
NAV 2025/08/01 00:02:24.029205 GPS $GPGGA,000343.00,4437.511442,N,12402.054893,W,2,09,0.9,25.951,M,-23.247,M,3.0,0131*45
NAV 2025/08/01 00:02:24.621275 GPS $GPZDA,000344.00,01,08,2025,00,00*69
NAV 2025/08/01 00:02:24.781210 GPS $GPRMC,000344.00,A,4437.511432,N,12402.054901,W,0.01,81.9,010825,,,D*4D
NAV 2025/08/01 00:02:24.861192 GPS $GPVTG,81.9,T,,M,0.01,N,0.02,K,D*3B
NAV 2025/08/01 00:02:25.037227 GPS $GPGGA,000344.00,4437.511432,N,12402.054901,W,2,08,1.0,25.948,M,-23.247,M,4.0,0131*49
NAV 2025/08/01 00:02:25.629217 GPS $GPZDA,000345.00,01,08,2025,00,00*68
NAV 2025/08/01 00:02:25.789168 GPS $GPRMC,000345.00,A,4437.511425,N,12402.054904,W,0.02,58.0,010825,,,D*41
NAV 2025/08/01 00:02:25.853235 GPS $GPVTG,58.0,T,,M,0.02,N,0.03,K,D*34
NAV 2025/08/01 00:02:26.045143 GPS $GPGGA,000345.00,4437.511425,N,12402.054904,W,2,08,1.0,25.948,M,-23.247,M,5.0,0131*4A
NAV 2025/08/01 00:02:26.621222 GPS $GPZDA,000346.00,01,08,2025,00,00*6B
NAV 2025/08/01 00:02:26.781157 GPS $GPRMC,000346.00,A,4437.511435,N,12402.054916,W,0.01,63.4,010825,,,D*4F
NAV 2025/08/01 00:02:26.861135 GPS $GPVTG,63.4,T,,M,0.01,N,0.02,K,D*3A
NAV 2025/08/01 00:02:27.037104 GPS $GPGGA,000346.00,4437.511435,N,12402.054916,W,2,08,1.0,25.966,M,-23.247,M,2.0,0131*40
NAV 2025/08/01 00:02:27.633192 GPS $GPZDA,000347.00,01,08,2025,00,00*6A
NAV 2025/08/01 00:02:27.773184 GPS $GPRMC,000347.00,A,4437.511457,N,12402.054905,W,0.01,101.3,010825,,,D*7A
NAV 2025/08/01 00:02:27.853179 GPS $GPVTG,101.3,T,,M,0.01,N,0.02,K,D*08
NAV 2025/08/01 00:02:28.045120 GPS $GPGGA,000347.00,4437.511457,N,12402.054905,W,2,08,1.0,25.971,M,-23.247,M,2.0,0131*41
NAV 2025/08/01 00:02:28.621158 GPS $GPZDA,000348.00,01,08,2025,00,00*65
NAV 2025/08/01 00:02:28.781129 GPS $GPRMC,000348.00,A,4437.511469,N,12402.054866,W,0.01,101.3,010825,,,D*7C
NAV 2025/08/01 00:02:28.861112 GPS $GPVTG,101.3,T,,M,0.01,N,0.02,K,D*08
NAV 2025/08/01 00:02:29.037149 GPS $GPGGA,000348.00,4437.511469,N,12402.054866,W,2,08,1.0,25.938,M,-23.247,M,2.0,0131*4A
NAV 2025/08/01 00:02:29.629099 GPS $GPZDA,000349.00,01,08,2025,00,00*64
NAV 2025/08/01 00:02:29.773138 GPS $GPRMC,000349.00,A,4437.511464,N,12402.054845,W,0.01,126.9,010825,,,D*7E
NAV 2025/08/01 00:02:29.853131 GPS $GPVTG,126.9,T,,M,0.01,N,0.02,K,D*07
NAV 2025/08/01 00:02:30.045100 GPS $GPGGA,000349.00,4437.511464,N,12402.054845,W,2,09,0.9,25.916,M,-23.247,M,3.0,0131*43
NAV 2025/08/01 00:02:30.621069 GPS $GPZDA,000350.00,01,08,2025,00,00*6C
NAV 2025/08/01 00:02:30.781064 GPS $GPRMC,000350.00,A,4437.511475,N,12402.054827,W,0.01,101.3,010825,,,D*7D
NAV 2025/08/01 00:02:30.861063 GPS $GPVTG,101.3,T,,M,0.01,N,0.02,K,D*08
NAV 2025/08/01 00:02:31.037038 GPS $GPGGA,000350.00,4437.511475,N,12402.054827,W,2,08,1.0,25.913,M,-23.247,M,4.0,0131*44
NAV 2025/08/01 00:02:31.629016 GPS $GPZDA,000351.00,01,08,2025,00,00*6D
NAV 2025/08/01 00:02:31.773104 GPS $GPRMC,000351.00,A,4437.511490,N,12402.054813,W,0.01,78.7,010825,,,D*4B
NAV 2025/08/01 00:02:31.853117 GPS $GPVTG,78.7,T,,M,0.01,N,0.02,K,D*33
NAV 2025/08/01 00:02:32.029012 GPS $GPGGA,000351.00,4437.511490,N,12402.054813,W,2,09,0.9,25.920,M,-23.247,M,5.0,0131*41
NAV 2025/08/01 00:02:32.621068 GPS $GPZDA,000352.00,01,08,2025,00,00*6E
NAV 2025/08/01 00:02:32.781022 GPS $GPRMC,000352.00,A,4437.511490,N,12402.054782,W,0.01,153.4,010825,,,D*74
NAV 2025/08/01 00:02:32.861051 GPS $GPVTG,153.4,T,,M,0.01,N,0.02,K,D*08
NAV 2025/08/01 00:02:33.036974 GPS $GPGGA,000352.00,4437.511490,N,12402.054782,W,2,09,0.9,25.916,M,-23.247,M,2.0,0131*47
NAV 2025/08/01 00:02:33.629007 GPS $GPZDA,000353.00,01,08,2025,00,00*6F
NAV 2025/08/01 00:02:33.773042 GPS $GPRMC,000353.00,A,4437.511477,N,12402.054780,W,0.01,45.0,010825,,,D*4C
NAV 2025/08/01 00:02:33.852998 GPS $GPVTG,45.0,T,,M,0.01,N,0.01,K,D*39
NAV 2025/08/01 00:02:34.028958 GPS $GPGGA,000353.00,4437.511477,N,12402.054780,W,2,09,0.9,25.909,M,-23.247,M,2.0,0131*43
NAV 2025/08/01 00:02:34.621024 GPS $GPZDA,000354.00,01,08,2025,00,00*68
NAV 2025/08/01 00:02:34.780967 GPS $GPRMC,000354.00,A,4437.511469,N,12402.054801,W,0.00,90.0,010825,,,D*4B
NAV 2025/08/01 00:02:34.860928 GPS $GPVTG,90.0,T,,M,0.00,N,0.00,K,D*31
NAV 2025/08/01 00:02:35.036943 GPS $GPGGA,000354.00,4437.511469,N,12402.054801,W,2,09,0.9,25.960,M,-23.247,M,2.0,0131*42
NAV 2025/08/01 00:02:35.628960 GPS $GPZDA,000355.00,01,08,2025,00,00*69
NAV 2025/08/01 00:02:35.772986 GPS $GPRMC,000355.00,A,4437.511464,N,12402.054812,W,0.00,90.0,010825,,,D*45
NAV 2025/08/01 00:02:35.852950 GPS $GPVTG,90.0,T,,M,0.00,N,0.01,K,D*30
NAV 2025/08/01 00:02:36.028925 GPS $GPGGA,000355.00,4437.511464,N,12402.054812,W,2,09,0.9,25.986,M,-23.247,M,3.0,0131*45
NAV 2025/08/01 00:02:36.620968 GPS $GPZDA,000356.00,01,08,2025,00,00*6A
NAV 2025/08/01 00:02:36.780918 GPS $GPRMC,000356.00,A,4437.511462,N,12402.054814,W,0.01,53.1,010825,,,D*49
NAV 2025/08/01 00:02:36.860897 GPS $GPVTG,53.1,T,,M,0.01,N,0.02,K,D*3C
NAV 2025/08/01 00:02:37.036887 GPS $GPGGA,000356.00,4437.511462,N,12402.054814,W,2,09,0.9,26.004,M,-23.247,M,4.0,0131*41
NAV 2025/08/01 00:02:37.628912 GPS $GPZDA,000357.00,01,08,2025,00,00*6B
NAV 2025/08/01 00:02:37.772947 GPS $GPRMC,000357.00,A,4437.511454,N,12402.054820,W,0.00,90.0,010825,,,D*45
NAV 2025/08/01 00:02:37.852926 GPS $GPVTG,90.0,T,,M,0.00,N,0.00,K,D*31
NAV 2025/08/01 00:02:38.028899 GPS $GPGGA,000357.00,4437.511454,N,12402.054820,W,2,09,0.9,26.008,M,-23.247,M,5.0,0131*4F
NAV 2025/08/01 00:02:38.620934 GPS $GPZDA,000358.00,01,08,2025,00,00*64
NAV 2025/08/01 00:02:38.780917 GPS $GPRMC,000358.00,A,4437.511456,N,12402.054829,W,0.01,45.0,010825,,,D*48
NAV 2025/08/01 00:02:38.860872 GPS $GPVTG,45.0,T,,M,0.01,N,0.02,K,D*3A
NAV 2025/08/01 00:02:39.036853 GPS $GPGGA,000358.00,4437.511456,N,12402.054829,W,2,09,0.9,26.006,M,-23.247,M,2.0,0131*42
NAV 2025/08/01 00:02:39.628859 GPS $GPZDA,000359.00,01,08,2025,00,00*65
NAV 2025/08/01 00:02:39.772888 GPS $GPRMC,000359.00,A,4437.511475,N,12402.054819,W,0.00,0.0,010825,,,D*7B
NAV 2025/08/01 00:02:39.852865 GPS $GPVTG,0.0,T,,M,0.00,N,0.00,K,D*08
NAV 2025/08/01 00:02:40.028800 GPS $GPGGA,000359.00,4437.511475,N,12402.054819,W,2,09,0.9,26.010,M,-23.247,M,2.0,0131*46
NAV 2025/08/01 00:02:40.636809 GPS $GPZDA,000400.00,01,08,2025,00,00*6E
NAV 2025/08/01 00:02:40.780837 GPS $GPRMC,000400.00,A,4437.511485,N,12402.054797,W,0.01,9.5,010825,,,D*7B
NAV 2025/08/01 00:02:40.860811 GPS $GPVTG,9.5,T,,M,0.01,N,0.02,K,D*07
NAV 2025/08/01 00:02:41.036777 GPS $GPGGA,000400.00,4437.511485,N,12402.054797,W,2,09,0.9,25.932,M,-23.247,M,2.0,0131*41
